id,name,name_en,name_ko,name_ja,name_zh_hans,name_zh_hant,name_es,name_ru,name_ar,flag,latitude,longitude,wikiDataId,translations,is_duplicated,country,country_code,country_name,state_code,fips_code,iso2,type
5227,Loyalty Islands Province,Loyalty Islands Province,로열티 제도 주,ロイヤルティ諸島,Loyalty Islands Province,,La Provincia de Loyalty Islands,Лоялти (Луайоте),مقاطعة جزر لويالتي,1,-20.966700000000000,167.233300000000000,Q18655787,"{'en': 'Loyalty Islands Province', 'ko': '로열티 제도 주', 'ja': 'ロイヤルティ諸島', 'zh-hans': '洛亚蒂群岛省', 'zh-hant': '洛亞蒂群島省', 'es': 'La Provincia de Loyalty Islands', 'ru': 'Лоялти (Луайоте)', 'ar': 'مقاطعة جزر لويالتي'}",False,157,NC,,,,03,province
5226,North Province,North Province,북쪽 주,北部州,North Province,,Provincia Norte,Северная провинция,المقاطعة الشمالية,1,-22.275800000000000,166.458000000000000,Q1612920,"{'en': 'North Province', 'ko': '북쪽 주', 'ja': '北部州', 'es': 'Provincia Norte', 'ru': 'Северная провинция', 'ar': 'المقاطعة الشمالية'}",False,157,NC,,,,02,province
5225,South Province,South Province,남쪽 주,南部州,South Province,,Provincia Sur,Южная провинция,المقاطعة الجنوبية,1,-22.275800000000000,166.458000000000000,Q965632,"{'en': 'South Province', 'ko': '남쪽 주', 'ja': '南部州', 'es': 'Provincia Sur', 'ru': 'Южная провинция', 'ar': 'المقاطعة الجنوبية'}",False,157,NC,,,,01,province
5224,Melilla,Melilla,조지 2세,ジョージ2世 (イギリス王),Melilla,,Jorge II de Gran Bretaña,Георг II,جورج الثاني ملك بريطانيا العظمى,1,35.293700000000000,-2.938300000000000,Q131981,"{'en': 'George II of Great Britain', 'ko': '조지 2세', 'ja': 'ジョージ2世 (イギリス王)', 'zh-hans': '乔治二世', 'zh-hant': '喬治二世', 'es': 'Jorge II de Gran Bretaña', 'ru': 'Георг II', 'ar': 'جورج الثاني ملك بريطانيا العظمى'}",False,207,ES,,,,ML,autonomous city in North Africa
5223,Ceuta,Ceuta,Tricerro,トリチェッロ,Ceuta,,Tricerro,Тричерро,تريسيرو,1,35.889000000000000,-5.318700000000000,Q25212,"{'en': 'Tricerro', 'ja': 'トリチェッロ', 'es': 'Tricerro', 'ru': 'Тричерро', 'ar': 'تريسيرو'}",False,207,ES,,,,CE,autonomous city in North Africa
5222,Canarias,Canarias,Canarias,Canarias,Canarias,,Canarias,Canarias,Canarias,1,28.291600000000000,16.629100000000000,Q5813,,True,207,ES,,,IC,CN,autonomous community
5221,Asuncion,Asuncion,아순시온,アスンシオン,Asuncion,,Asunción,Асунсьон,أسونسيون,1,-25.296829700000000,-57.680662300000000,Q2933,"{'en': 'Asunción', 'ko': '아순시온', 'ja': 'アスンシオン', 'zh-hans': '亚松森', 'zh-hant': '亞松森', 'es': 'Asunción', 'ru': 'Асунсьон', 'ar': 'أسونسيون'}",False,172,PY,,,,ASU,capital
5220,Wake Island,Wake Island,웨이크섬,ウェーク島,Wake Island,,Isla Wake,Уэйк,جزيرة ويك,1,19.279619000000000,166.649934800000000,Q43296,"{'en': 'Wake Island', 'ko': '웨이크섬', 'ja': 'ウェーク島', 'zh-hans': '威克岛', 'zh-hant': '威克島', 'es': 'Isla Wake', 'ru': 'Уэйк', 'ar': 'جزيرة ويك'}",False,234,UM,,,,79,island
5219,Palmyra Atoll,Palmyra Atoll,팔미라 환초,パルミラ環礁,Palmyra Atoll,,Atolón Palmyra,Пальмира,جزر بالميرا المرجانية,1,5.888502600000000,-162.078665600000000,Q123076,"{'en': 'Palmyra Atoll', 'ko': '팔미라 환초', 'ja': 'パルミラ環礁', 'zh-hans': '巴尔米拉环礁', 'zh-hant': '巴美拉環礁', 'es': 'Atolón Palmyra', 'ru': 'Пальмира', 'ar': 'جزر بالميرا المرجانية'}",False,234,UM,,,,95,island
5218,Navassa Island,Navassa Island,나배사섬,ナヴァッサ島,Navassa Island,,Isla de Navaza,Навасса,جزيرة نافاسا,1,18.410068900000000,-75.011461200000000,Q25359,"{'en': 'Navassa Island', 'ko': '나배사섬', 'ja': 'ナヴァッサ島', 'zh-hans': '纳瓦萨岛', 'zh-hant': '納弗沙島', 'es': 'Isla de Navaza', 'ru': 'Навасса', 'ar': 'جزيرة نافاسا'}",False,234,UM,,,,76,island
5217,Midway Islands,Midway Islands,Midway Islands,Midway Islands,Midway Islands,,Midway Islands,Midway Islands,Midway Islands,1,28.207216800000000,-177.373492600000000,Q47863,,True,234,UM,,,,71,island
5216,Kingman Reef,Kingman Reef,킹먼 암초,キングマン・リーフ,Kingman Reef,,Arrecife Kingman,Риф Кингмен,شعب كينغمان المرجانية,1,6.383333000000000,-162.416667000000000,Q130895,"{'en': 'Kingman Reef', 'ko': '킹먼 암초', 'ja': 'キングマン・リーフ', 'zh-hans': '金曼礁', 'zh-hant': '金曼礁', 'es': 'Arrecife Kingman', 'ru': 'Риф Кингмен', 'ar': 'شعب كينغمان المرجانية'}",False,234,UM,,,,89,island
5215,Johnston Atoll,Johnston Atoll,존스턴 환초,ジョンストン島,Johnston Atoll,,Atolón Johnston,Джонстон,جزيرة جونستون المرجانية,1,16.729503500000000,-169.533647700000000,Q131008,"{'en': 'Johnston Atoll', 'ko': '존스턴 환초', 'ja': 'ジョンストン島', 'zh-hans': '约翰斯顿环礁', 'zh-hant': '強斯頓環礁', 'es': 'Atolón Johnston', 'ru': 'Джонстон', 'ar': 'جزيرة جونستون المرجانية'}",False,234,UM,,,,67,island
5214,Jarvis Island,Jarvis Island,자르비스섬,ジャーヴィス島,Jarvis Island,,Isla Jarvis,Остров Джарвис,جزيرة جارفيس,1,-0.374350300000000,-159.996720600000000,Q62218,"{'en': 'Jarvis Island', 'ko': '자르비스섬', 'ja': 'ジャーヴィス島', 'zh-hans': '贾维斯岛', 'zh-hant': '賈維斯島', 'es': 'Isla Jarvis', 'ru': 'Остров Джарвис', 'ar': 'جزيرة جارفيس'}",False,234,UM,,,,86,island
5213,Howland Island,Howland Island,하울랜드섬,ハウランド島,Howland Island,,Isla Howland,Хауленд,جزيرة هاولاند,1,0.811321900000000,-176.618273600000000,Q131305,"{'en': 'Howland Island', 'ko': '하울랜드섬', 'ja': 'ハウランド島', 'zh-hans': '豪兰岛', 'zh-hant': '豪蘭島', 'es': 'Isla Howland', 'ru': 'Хауленд', 'ar': 'جزيرة هاولاند'}",False,234,UM,,,,84,island
5212,Baker Island,Baker Island,Baker Island,Baker Island,Baker Island,,Baker Island,Baker Island,Baker Island,1,0.193626600000000,-176.476908000000000,Q4849164,{'en': 'Baker Island'},False,234,UM,,,,81,island
5211,Yauco,Yauco,Yauco,ヤウコ,Yauco,,Yauco,Яуко,Yauco,1,18.034964000000000,-66.849898300000000,Q368526,"{'en': 'Yauco', 'ja': 'ヤウコ', 'es': 'Yauco', 'ru': 'Яуко'}",False,178,PR,,,,153,municipalities
5210,Yabucoa,Yabucoa,Yabucoa,ヤブコア,Yabucoa,,Yabucoa,Ябукоа,Yabucoa,1,18.050520100000000,-65.879328800000000,Q2361097,"{'en': 'Yabucoa', 'ja': 'ヤブコア', 'zh-hans': '亚武科阿', 'zh-hant': '亞武科阿', 'es': 'Yabucoa', 'ru': 'Ябукоа'}",False,178,PR,,,,151,municipalities
5209,Villalba,Villalba,Villalba,Villalba,Villalba,,Villalba,Вильяльба,Villalba,1,18.121755400000000,-66.498578700000000,Q299761,"{'en': 'Villalba', 'es': 'Villalba', 'ru': 'Вильяльба'}",False,178,PR,,,,149,municipalities
5208,Vieques,Vieques,비에케스섬,ビエケス島,Vieques,,Vieques,Вьекес,فيكويس,1,18.126285400000000,-65.440098500000000,Q737624,"{'en': 'Vieques', 'ko': '비에케스섬', 'ja': 'ビエケス島', 'zh-hans': '别克斯岛', 'zh-hant': '別克斯島', 'es': 'Vieques', 'ru': 'Вьекес', 'ar': 'فيكويس'}",False,178,PR,,,,147,municipalities
5207,Vega Baja,Vega Baja,베가바하,ベガ・バハ,Vega Baja,,Vega Baja,Вега-Баха,Vega Baja,1,18.446145900000000,-66.404196700000000,Q2179051,"{'en': 'Vega Baja', 'ko': '베가바하', 'ja': 'ベガ・バハ', 'es': 'Vega Baja', 'ru': 'Вега-Баха'}",False,178,PR,,,,145,municipalities
5206,Vega Alta,Vega Alta,Vega Alta,ベガ・アルタ,Vega Alta,,Vega Alta,Вега-Альта,Vega Alta,1,18.412170300000000,-66.331280500000000,Q2640843,"{'en': 'Vega Alta', 'ja': 'ベガ・アルタ', 'es': 'Vega Alta', 'ru': 'Вега-Альта'}",False,178,PR,,,,143,municipalities
5205,Utuado,Utuado,우투아도,ウトゥアード,Utuado,,Utuado,Утуадо,Utuado,1,18.265509500000000,-66.700451900000000,Q617096,"{'en': 'Utuado', 'ko': '우투아도', 'ja': 'ウトゥアード', 'es': 'Utuado', 'ru': 'Утуадо'}",False,178,PR,,,,141,municipalities
5204,Trujillo Alto,Trujillo Alto,트루히요알토,トルヒーヨアルト,Trujillo Alto,,Trujillo Alto,Трухильо-Альто,Trujillo Alto,1,18.354671900000000,-66.007387600000000,Q1150895,"{'en': 'Trujillo Alto', 'ko': '트루히요알토', 'ja': 'トルヒーヨアルト', 'zh-hans': '上特鲁希略', 'zh-hant': '上特魯希略', 'es': 'Trujillo Alto', 'ru': 'Трухильо-Альто'}",False,178,PR,,,,139,municipalities
5203,Toa Baja,Toa Baja,Toa Baja,トア・バハ,Toa Baja,,Toa Baja,Тоа-Баха,تواباخا,1,18.444470900000000,-66.254329300000000,Q2238070,"{'en': 'Toa Baja', 'ja': 'トア・バハ', 'es': 'Toa Baja', 'ru': 'Тоа-Баха', 'ar': 'تواباخا'}",False,178,PR,,,,137,municipalities
5202,Toa Alta,Toa Alta,Toa Alta,トア・アルタ,Toa Alta,,Toa Alta,Тоа-Альта,Toa Alta,1,18.388282300000000,-66.248223700000000,Q2485509,"{'en': 'Toa Alta', 'ja': 'トア・アルタ', 'es': 'Toa Alta', 'ru': 'Тоа-Альта'}",False,178,PR,,,,135,municipalities
5201,Santa Isabel,Santa Isabel,Santa Isabel,サンタイサベル,Santa Isabel,,Santa Isabel,Санта-Исабель,سانتا إيزابيل,1,17.966077500000000,-66.404892000000000,Q234744,"{'en': 'Santa Isabel', 'ja': 'サンタイサベル', 'es': 'Santa Isabel', 'ru': 'Санта-Исабель', 'ar': 'سانتا إيزابيل'}",False,178,PR,,,,133,municipalities
5200,San Sebastián,San Sebastián,산세바스티안,サン・セバスティアン,San Sebastián,,San Sebastián,Сан-Себастьян,سان سيباستيان,1,43.318334000000000,-1.981231300000000,Q10313,"{'en': 'San Sebastián', 'ko': '산세바스티안', 'ja': 'サン・セバスティアン', 'zh-hans': '圣塞瓦斯蒂安', 'zh-hant': '聖塞巴斯提安', 'es': 'San Sebastián', 'ru': 'Сан-Себастьян', 'ar': 'سان سيباستيان'}",False,178,PR,,,,131,municipalities
5199,San Lorenzo,San Lorenzo,산로렌소,サンロレンソ,San Lorenzo,,San Lorenzo,Сан-Лоренсо,سان لورينزو,1,18.188691200000000,-65.976586200000000,Q225380,"{'en': 'San Lorenzo', 'ko': '산로렌소', 'ja': 'サンロレンソ', 'es': 'San Lorenzo', 'ru': 'Сан-Лоренсо', 'ar': 'سان لورينزو'}",False,178,PR,,,,129,municipalities
5198,San Juan,San Juan,산후안,サン・フアン,San Juan,,San Juan,Сан-Хуан,سان خوان,1,18.463203000000000,-66.114757100000000,Q1320747,"{'en': 'San Juan', 'ko': '산후안', 'ja': 'サン・フアン', 'es': 'San Juan', 'ru': 'Сан-Хуан', 'ar': 'سان خوان'}",False,178,PR,,,,127,municipalities
5197,San Germán,San Germán,산헤르만,サンヘルマン (プエルトリコ),San Germán,,San Germán,Сан-Херман,سان خيرمان (بورتوريكو),1,18.080708200000000,-67.041109600000000,Q1598808,"{'en': 'San Germán', 'ko': '산헤르만', 'ja': 'サンヘルマン (プエルトリコ)', 'zh-hans': '圣赫尔曼', 'zh-hant': '聖赫爾曼', 'es': 'San Germán', 'ru': 'Сан-Херман', 'ar': 'سان خيرمان (بورتوريكو)'}",False,178,PR,,,,125,municipalities
5196,Salinas,Salinas,살리나스,サリナス,Salinas,,Salinas,Салинас,Salinas,1,36.677737200000000,-121.655501300000000,Q229252,"{'en': 'Salinas', 'ko': '살리나스', 'ja': 'サリナス', 'es': 'Salinas', 'ru': 'Салинас'}",False,178,PR,,,,123,municipalities
5195,Sabana Grande,Sabana Grande,Sabana grande,Sabana grande,Sabana Grande,,Sabanagrande,Sabana grande,Sabana grande,1,18.077739200000000,-66.960454900000000,Q739870,"{'en': 'Sabana grande', 'es': 'Sabanagrande'}",False,178,PR,,,,121,municipalities
5194,Río Grande,Río Grande,리오그란데강,リオ・グランデ川,Río Grande,,Río Bravo,Рио-Гранде,ريو غراندي,1,28.810638260000000,-101.835387800000000,Q160636,"{'en': 'Rio Grande', 'ko': '리오그란데강', 'ja': 'リオ・グランデ川', 'zh-hans': '格兰德河', 'zh-hant': '格蘭德河', 'es': 'Río Bravo', 'ru': 'Рио-Гранде', 'ar': 'ريو غراندي'}",False,178,PR,,,,119,municipalities
5193,Rincón,Rincón,Rincon,リンコン,Rincón,,Rincon,Ринкон,Rincon,1,18.340151400000000,-67.249945900000000,Q294727,"{'en': 'Rincon', 'ja': 'リンコン', 'es': 'Rincon', 'ru': 'Ринкон'}",False,178,PR,,,,117,municipalities
5192,Quebradillas,Quebradillas,Quebradillas,ケブラディージャス (プエルトリコ),Quebradillas,,Quebradillas,Кебрадильяс,Quebradillas,1,18.473833000000000,-66.938512000000000,Q2057872,"{'en': 'Quebradillas', 'ja': 'ケブラディージャス (プエルトリコ)', 'es': 'Quebradillas', 'ru': 'Кебрадильяс'}",False,178,PR,,,,115,municipalities
5191,Ponce,Ponce,폰세,ポンセ,Ponce,,Ponce,Понсе,Ponce,1,18.011076800000000,-66.614061600000000,Q403985,"{'en': 'Ponce', 'ko': '폰세', 'ja': 'ポンセ', 'es': 'Ponce', 'ru': 'Понсе'}",False,178,PR,,,,113,municipalities
5190,Peñuelas,Peñuelas,Peñuelas,ペニュエラス,Peñuelas,,Peñuelas,Пеньюэлас,Peñuelas,1,18.063357700000000,-66.727389600000000,Q369880,"{'en': 'Peñuelas', 'ja': 'ペニュエラス', 'es': 'Peñuelas', 'ru': 'Пеньюэлас'}",False,178,PR,,,,111,municipalities
5189,Patillas,Patillas,Patillas,パティリャス (プエルトリコ),Patillas,,Patillas,Патильяс,Patillas,1,18.003738100000000,-66.013405900000000,Q2485638,"{'en': 'Patillas', 'ja': 'パティリャス (プエルトリコ)', 'es': 'Patillas', 'ru': 'Патильяс'}",False,178,PR,,,,109,municipalities
5188,Orocovis,Orocovis,Orocovis,オロコビス,Orocovis,,Orocovis,Ороковис,Orocovis,1,18.226922400000000,-66.391168600000000,Q2624345,"{'en': 'Orocovis', 'ja': 'オロコビス', 'es': 'Orocovis', 'ru': 'Ороковис'}",False,178,PR,,,,107,municipalities
5187,Naranjito,Naranjito,Naranjito,Naranjito,Naranjito,,Naranjito,Naranjito,Naranjito,1,18.300786100000000,-66.244890400000000,Q416476,"{'en': 'Naranjito', 'es': 'Naranjito'}",False,178,PR,,,,105,municipalities
5186,Naguabo,Naguabo,Naguabo,ナグアボ,Naguabo,,Naguabo,Нагуабо,Naguabo,1,18.211624700000000,-65.734884100000000,Q2659720,"{'en': 'Naguabo', 'ja': 'ナグアボ', 'zh-hans': '纳瓜沃', 'zh-hant': '納瓜沃', 'es': 'Naguabo', 'ru': 'Нагуабо'}",False,178,PR,,,,103,municipalities
5185,Morovis,Morovis,Morovis,モロビス,Morovis,,Morovis,Моровис,Morovis,1,18.325785000000000,-66.406559200000000,Q2623982,"{'en': 'Morovis', 'ja': 'モロビス', 'es': 'Morovis', 'ru': 'Моровис'}",False,178,PR,,,,101,municipalities
5184,Moca,Moca,MOCA,Moca,Moca,,Moca,MOCA,MOCA,1,18.396792900000000,-67.147903500000000,Q439855,"{'en': 'MOCA', 'ja': 'Moca', 'es': 'Moca'}",False,178,PR,,,,099,municipalities
5183,Mayagüez,Mayagüez,마야궤스,マヤグエス,Mayagüez,,Mayagüez,Маягуэс,ماياجويز,1,18.201345200000000,-67.145154900000000,Q632727,"{'en': 'Mayagüez', 'ko': '마야궤스', 'ja': 'マヤグエス', 'zh-hans': '马亚圭斯', 'zh-hant': '馬亞圭斯', 'es': 'Mayagüez', 'ru': 'Маягуэс', 'ar': 'ماياجويز'}",False,178,PR,,,,097,municipalities
5182,Maunabo,Maunabo,Maunabo,Maunabo,Maunabo,,Maunabo,Maunabo,Maunabo,1,18.007188500000000,-65.899328900000000,Q3017679,"{'en': 'Maunabo', 'es': 'Maunabo'}",False,178,PR,,,,095,municipalities
5181,Maricao,Maricao,Maricao,マリカオ,Maricao,,Maricao,Марикао,Maricao,1,18.180790200000000,-66.979900100000000,Q2624359,"{'en': 'Maricao', 'ja': 'マリカオ', 'es': 'Maricao', 'ru': 'Марикао'}",False,178,PR,,,,093,municipalities
5180,Manatí,Manatí,Manatí,マナティ (プエルトリコ),Manatí,,Manatí,Манати,Manatí,1,18.418121500000000,-66.526278300000000,Q674599,"{'en': 'Manatí', 'ja': 'マナティ (プエルトリコ)', 'zh-hans': '马纳蒂', 'es': 'Manatí', 'ru': 'Манати'}",False,178,PR,,,,091,municipalities
5179,Luquillo,Luquillo,Luquillo,ルキリョ,Luquillo,,Luquillo,Луквильо,Luquillo,1,18.372450700000000,-65.716551100000000,Q1984618,"{'en': 'Luquillo', 'ja': 'ルキリョ', 'zh-hans': '卢基约', 'zh-hant': '盧基約', 'es': 'Luquillo', 'ru': 'Луквильо'}",False,178,PR,,,,089,municipalities
5178,Loíza,Loíza,Loíza,ロイサ,Loíza,,Loíza,Лоиса,Loíza,1,18.432990400000000,-65.878360000000000,Q1853983,"{'en': 'Loíza', 'ja': 'ロイサ', 'zh-hant': '洛伊薩', 'es': 'Loíza', 'ru': 'Лоиса'}",False,178,PR,,,,087,municipalities
5177,Las Piedras,Las Piedras,Las Piedras,Las Piedras,Las Piedras,,Las Piedras,Лас-Пьедрас,Las Piedras,1,18.185575300000000,-65.873624500000000,Q115308,"{'en': 'Las Piedras', 'es': 'Las Piedras', 'ru': 'Лас-Пьедрас'}",False,178,PR,,,,085,municipalities
5176,Las Marías,Las Marías,Las Marías,ラスマリアス,Las Marías,,Las Marías,Лас-Мариас,Las Marías,1,35.838223800000000,-78.610356600000000,Q2485590,"{'en': 'Las Marías', 'ja': 'ラスマリアス', 'es': 'Las Marías', 'ru': 'Лас-Мариас'}",False,178,PR,,,,083,municipalities
5175,Lares,Lares,라레스,ラレース,Lares,,Lares,Лары,لار,1,34.025080200000000,-118.459459300000000,Q504377,"{'en': 'Lares', 'ko': '라레스', 'ja': 'ラレース', 'es': 'Lares', 'ru': 'Лары', 'ar': 'لار'}",False,178,PR,,,,081,municipalities
5174,Lajas,Lajas,Lajas,Lajas,Lajas,,Lajas,Lajas,Lajas,1,18.049962000000000,-67.059344900000000,Q396648,"{'en': 'Lajas', 'es': 'Lajas'}",False,178,PR,,,,079,municipalities
5173,Juncos,Juncos,Juncos,フンコス,Juncos,,Juncos,Хункос,Juncos,1,18.227455800000000,-65.920997000000000,Q2347667,"{'en': 'Juncos', 'ja': 'フンコス', 'es': 'Juncos', 'ru': 'Хункос'}",False,178,PR,,,,077,municipalities
5172,Juana Díaz,Juana Díaz,Juana Díaz,ファナ・ディアス,Juana Díaz,,Juana Díaz,Хуана-Диас,خوانا دياز,1,18.053437200000000,-66.507507900000000,Q2361577,"{'en': 'Juana Díaz', 'ja': 'ファナ・ディアス', 'es': 'Juana Díaz', 'ru': 'Хуана-Диас', 'ar': 'خوانا دياز'}",False,178,PR,,,,075,municipalities
5171,Jayuya,Jayuya,Jayuya,ジャユヤ,Jayuya,,Jayuya,Хаюя,Jayuya,1,18.218567400000000,-66.591561700000000,Q2095818,"{'en': 'Jayuya', 'ja': 'ジャユヤ', 'es': 'Jayuya', 'ru': 'Хаюя'}",False,178,PR,,,,073,municipalities
5170,Isabela,Isabela,Isabela,イザベラ,Isabela,,Isabela,Исабела,Isabela,1,16.975375800000000,121.810707900000000,Q230864,"{'en': 'Isabela', 'ja': 'イザベラ', 'es': 'Isabela', 'ru': 'Исабела'}",False,178,PR,,,,071,municipalities
5169,Humacao,Humacao,Humacao,ウマカオ (プエルトリコ),Humacao,,Humacao,Умакао,Humacao,1,18.151573600000000,-65.824852900000000,Q2307535,"{'en': 'Humacao', 'ja': 'ウマカオ (プエルトリコ)', 'zh-hans': '乌马考', 'zh-hant': '烏馬考', 'es': 'Humacao', 'ru': 'Умакао'}",False,178,PR,,,,069,municipalities
5168,Hormigueros,Hormigueros,Hormigueros,オルミグエロス,Hormigueros,,Hormigueros,Ормигерос,Hormigueros,1,18.133463800000000,-67.112812300000000,Q2361536,"{'en': 'Hormigueros', 'ja': 'オルミグエロス', 'es': 'Hormigueros', 'ru': 'Ормигерос'}",False,178,PR,,,,067,municipalities
5167,Hatillo,Hatillo,Hatillo,Hatillo,Hatillo,,Hatillo,Hatillo,Hatillo,1,18.428464200000000,-66.787532100000000,Q1179486,"{'en': 'Hatillo', 'es': 'Hatillo'}",False,178,PR,,,,065,municipalities
5166,Gurabo,Gurabo,Gurabo,Gurabo,Gurabo,,Gurabo,Gurabo,Gurabo,1,18.254398700000000,-65.972942100000000,Q396816,"{'en': 'Gurabo', 'es': 'Gurabo'}",False,178,PR,,,,063,municipalities
5165,Guaynabo,Guaynabo,Guaynabo,グアイナボ,Guaynabo,,Guaynabo,Гуайнабо,Guaynabo,1,18.361295400000000,-66.110295700000000,Q590060,"{'en': 'Guaynabo', 'ja': 'グアイナボ', 'zh-hans': '瓜伊纳沃', 'zh-hant': '瓜伊納沃', 'es': 'Guaynabo', 'ru': 'Гуайнабо'}",False,178,PR,,,,061,municipalities
5164,Guayanilla,Guayanilla,Guayanilla,グアヤニラ,Guayanilla,,Guayanilla,Гуаянилья,Guayanilla,1,18.019131400000000,-66.791842000000000,Q2333093,"{'en': 'Guayanilla', 'ja': 'グアヤニラ', 'es': 'Guayanilla', 'ru': 'Гуаянилья'}",False,178,PR,,,,059,municipalities
5163,Guayama,Guayama,Guayama,グアヤマ,Guayama,,Guayama,Гуаяма,Guayama,1,17.984132800000000,-66.113776700000000,Q1870997,"{'en': 'Guayama', 'ja': 'グアヤマ', 'zh-hant': '瓜亞馬', 'es': 'Guayama', 'ru': 'Гуаяма'}",False,178,PR,,,,057,municipalities
5162,Guánica,Guánica,Guánica,グアニカ,Guánica,,Guánica,Гуаника,Guánica,1,17.972514500000000,-66.908626400000000,Q1019645,"{'en': 'Guánica', 'ja': 'グアニカ', 'es': 'Guánica', 'ru': 'Гуаника'}",False,178,PR,,,,055,municipalities
5161,Florida,Florida,Villa Florida,Villa Florida,Florida,,Villa Florida,Вилья-Флорида,Villa Florida,1,27.664827400000000,-81.515753500000000,Q615791,"{'en': 'Villa Florida', 'es': 'Villa Florida', 'ru': 'Вилья-Флорида'}",False,178,PR,,,,054,municipalities
5160,Fajardo,Fajardo,Fajardo,ファハルド,Fajardo,,Fajardo,Фахардо,Fajardo,1,18.325214800000000,-65.653935600000000,Q542833,"{'en': 'Fajardo', 'ja': 'ファハルド', 'zh-hans': '法哈多', 'zh-hant': '法哈多', 'es': 'Fajardo', 'ru': 'Фахардо'}",False,178,PR,,,,053,municipalities
5159,Dorado,Dorado,황새치자리,かじき座,Dorado,,Dorado,Золотая Рыба,أبو سيف,1,43.148055600000000,-77.577222200000000,Q8837,"{'en': 'Dorado', 'ko': '황새치자리', 'ja': 'かじき座', 'zh-hans': '劍魚座', 'zh-hant': '劍魚座', 'es': 'Dorado', 'ru': 'Золотая Рыба', 'ar': 'أبو سيف'}",False,178,PR,,,,051,municipalities
5158,Culebra,Culebra,Culebra,Culebra,Culebra,,Culebra,Кулебра,Culebra,1,18.310394000000000,-65.303070500000000,Q526402,"{'en': 'Culebra', 'es': 'Culebra', 'ru': 'Кулебра'}",False,178,PR,,,,049,municipalities
5157,Corozal,Corozal,Corozal,Corozal,Corozal,,Corozal,Коросаль (значения),Corozal,1,18.403080200000000,-88.396753600000000,Q451786,"{'en': 'Corozal', 'es': 'Corozal', 'ru': 'Коросаль (значения)'}",False,178,PR,,,,047,municipalities
5156,Comerío,Comerío,Comerío,コメリオ,Comerío,,Comerío,Комерио,Comerío,1,18.219200100000000,-66.225602200000000,Q2222328,"{'en': 'Comerío', 'ja': 'コメリオ', 'es': 'Comerío', 'ru': 'Комерио'}",False,178,PR,,,,045,municipalities
5155,Coamo,Coamo,Coamo,コアモ,Coamo,,Coamo,Коамо,Coamo,1,18.079961600000000,-66.357947300000000,Q1942303,"{'en': 'Coamo', 'ja': 'コアモ', 'es': 'Coamo', 'ru': 'Коамо'}",False,178,PR,,,,043,municipalities
5154,Cidra,Cidra,Cucurbita ficifolia,クロダネカボチャ,Cidra,,Cucurbita ficifolia,Тыква фиголистная,بذر القرع,1,18.175791400000000,-66.161277900000000,Q431138,"{'en': 'Cucurbita ficifolia', 'ja': 'クロダネカボチャ', 'es': 'Cucurbita ficifolia', 'ru': 'Тыква фиголистная', 'ar': 'بذر القرع'}",False,178,PR,,,,041,municipalities
5153,Ciales,Ciales,Ciales,シアレス,Ciales,,Ciales,Сьялес,Ciales,1,18.336062200000000,-66.468782300000000,Q2485522,"{'en': 'Ciales', 'ja': 'シアレス', 'zh-hans': '锡亚莱斯', 'es': 'Ciales', 'ru': 'Сьялес'}",False,178,PR,,,,039,municipalities
5152,Ceiba,Ceiba,세이바,セイバ属,Ceiba,,Ceiba,Сейба,قابوق,1,18.247517700000000,-65.908495300000000,Q284019,"{'en': 'Ceiba', 'ko': '세이바', 'ja': 'セイバ属', 'zh-hans': '爪哇木棉属', 'zh-hant': '爪哇木棉屬', 'es': 'Ceiba', 'ru': 'Сейба', 'ar': 'قابوق'}",False,178,PR,,,,037,municipalities
5151,Cayey,Cayey,Cayey,カジェイ,Cayey,,Cayey,Кайей,Cayey,1,18.111905100000000,-66.166000000000000,Q2307508,"{'en': 'Cayey', 'ja': 'カジェイ', 'zh-hant': '卡耶伊', 'es': 'Cayey', 'ru': 'Кайей'}",False,178,PR,,,,035,municipalities
5150,Cataño,Cataño,Cataño,カターニョ (プエルトリコ),Cataño,,Cataño,Катаньо (Пуэрто-Рико),Cataño,1,18.446535500000000,-66.135577500000000,Q768483,"{'en': 'Cataño', 'ja': 'カターニョ (プエルトリコ)', 'es': 'Cataño', 'ru': 'Катаньо (Пуэрто-Рико)'}",False,178,PR,,,,033,municipalities
5149,Carolina,Carolina,캐롤라이나,カロライナ,Carolina,,Carolina,Carolina (значения),Carolina,1,18.368087700000000,-66.042473400000000,Q729639,"{'en': 'Carolina', 'ko': '캐롤라이나', 'ja': 'カロライナ', 'es': 'Carolina', 'ru': 'Carolina (значения)'}",False,178,PR,,,,031,municipalities
5148,Canóvanas,Canóvanas,Canóvanas,カノバナス,Canóvanas,,Canóvanas,Канованас,Canóvanas,1,18.374874800000000,-65.899753300000000,Q2361552,"{'en': 'Canóvanas', 'ja': 'カノバナス', 'es': 'Canóvanas', 'ru': 'Канованас'}",False,178,PR,,,,029,municipalities
5147,Camuy,Camuy,Camuy,カムイ,Camuy,,Camuy,Камуй,كاموي,1,18.483833000000000,-66.844899400000000,Q2380860,"{'en': 'Camuy', 'ja': 'カムイ', 'es': 'Camuy', 'ru': 'Камуй', 'ar': 'كاموي'}",False,178,PR,,,,027,municipalities
5146,Caguas,Caguas,카구아스,カグアス,Caguas,,Caguas,Кагуас,كاغواس,1,18.238799500000000,-66.035249000000000,Q527268,"{'en': 'Caguas', 'ko': '카구아스', 'ja': 'カグアス', 'zh-hant': '卡瓜斯', 'es': 'Caguas', 'ru': 'Кагуас', 'ar': 'كاغواس'}",False,178,PR,,,,025,municipalities
5145,Cabo Rojo,Cabo Rojo,Cabo Rojo,Cabo Rojo,Cabo Rojo,,Cabo Rojo,Cabo Rojo,Cabo Rojo,1,18.086626500000000,-67.145734700000000,Q396221,{'en': 'Cabo Rojo'},False,178,PR,,,,023,municipalities
5144,Bayamón,Bayamón,바야몬,バヤモン,Bayamón,,Bayamón,Баямон,بايامون,1,18.389396000000000,-66.165322400000000,Q739675,"{'en': 'Bayamón', 'ko': '바야몬', 'ja': 'バヤモン', 'zh-hans': '巴亚蒙', 'zh-hant': '巴亞蒙', 'es': 'Bayamón', 'ru': 'Баямон', 'ar': 'بايامون'}",False,178,PR,,,,021,municipalities
5143,Barranquitas,Barranquitas,Barranquitas,バランキタス,Barranquitas,,Barranquitas,Барранкитас,Barranquitas,1,18.186624200000000,-66.306280200000000,Q2485615,"{'en': 'Barranquitas', 'ja': 'バランキタス', 'zh-hant': '巴蘭基塔斯', 'es': 'Barranquitas', 'ru': 'Барранкитас'}",False,178,PR,,,,019,municipalities
5142,Barceloneta,Barceloneta,Barceloneta,Barceloneta,Barceloneta,,Barceloneta,Barceloneta,Barceloneta,1,41.380106100000000,2.189695700000000,Q526438,"{'en': 'Barceloneta', 'es': 'Barceloneta'}",False,178,PR,,,,017,municipalities
5141,Arroyo,Arroyo,아로요,アロヨ,Arroyo,,Arroyo,Арройо,Arroyo,1,17.996422000000000,-66.092487900000000,Q344528,"{'en': 'Arroyo', 'ko': '아로요', 'ja': 'アロヨ', 'es': 'Arroyo', 'ru': 'Арройо'}",False,178,PR,,,,015,municipalities
5140,Arecibo,Arecibo,아레시보,アレシボ,Arecibo,,Arecibo,Аресибо,أريسيبو,1,18.470513700000000,-66.721847200000000,Q640728,"{'en': 'Arecibo', 'ko': '아레시보', 'ja': 'アレシボ', 'zh-hant': '阿雷西沃', 'es': 'Arecibo', 'ru': 'Аресибо', 'ar': 'أريسيبو'}",False,178,PR,,,,013,municipalities
5139,Añasco,Añasco,Añasco,アニャスコ,Añasco,,Añasco,Аньяско,Añasco,1,18.285447600000000,-67.140293500000000,Q2390910,"{'en': 'Añasco', 'ja': 'アニャスコ', 'es': 'Añasco', 'ru': 'Аньяско'}",False,178,PR,,,,011,municipalities
5138,Aibonito,Aibonito,Aibonito,アイボニト,Aibonito,,Aibonito,Айбонито,Aibonito,1,18.139959400000000,-66.266001600000000,Q2485628,"{'en': 'Aibonito', 'ja': 'アイボニト', 'es': 'Aibonito', 'ru': 'Айбонито'}",False,178,PR,,,,009,municipalities
5137,Aguas Buenas,Aguas Buenas,Aguas Buenas,アグアス・ブエナス,Aguas Buenas,,Aguas Buenas,Агуас-Буэнас,Aguas Buenas,1,18.256898900000000,-66.102944200000000,Q2361568,"{'en': 'Aguas Buenas', 'ja': 'アグアス・ブエナス', 'zh-hant': '阿瓜斯布埃納斯', 'es': 'Aguas Buenas', 'ru': 'Агуас-Буэнас'}",False,178,PR,,,,007,municipalities
5136,Aguadilla,Aguadilla,아과디야,アグアディヤ (プエルトリコ),Aguadilla,,Aguadilla,Агуадилья,Aguadilla,1,18.427445400000000,-67.154069800000000,Q397826,"{'en': 'Aguadilla', 'ko': '아과디야', 'ja': 'アグアディヤ (プエルトリコ)', 'es': 'Aguadilla', 'ru': 'Агуадилья'}",False,178,PR,,,,005,municipalities
5135,Aguada,Aguada,Aguada,Aguada,Aguada,,Aguada,Aguada,Aguada,1,18.380157900000000,-67.188704000000000,Q365641,"{'en': 'Aguada', 'es': 'Aguada'}",False,178,PR,,,,003,municipalities
5134,Adjuntas,Adjuntas,Adjuntas,アドフンタス,Adjuntas,,Adjuntas,Адхунтас,Adjuntas,1,18.163484800000000,-66.723158000000000,Q1864884,"{'en': 'Adjuntas', 'ja': 'アドフンタス', 'es': 'Adjuntas', 'ru': 'Адхунтас'}",False,178,PR,,,,001,municipalities
5133,Tulkarm,Tulkarm,툴카름,トゥルカーム,Tulkarm,,Tulkarem,Тулькарм,طولكرم,1,0E-15,0E-15,Q985531,"{'en': 'Tulkarm', 'ko': '툴카름', 'ja': 'トゥルカーム', 'zh-hans': '图勒凯尔姆', 'zh-hant': '圖勒凱爾姆', 'es': 'Tulkarem', 'ru': 'Тулькарм', 'ar': 'طولكرم'}",False,169,PS,,,,TKM,governorate
5132,Tubas,Tubas,투바스,チュバス,Tubas,,Tubas,Тубас,طوباس,1,0E-15,0E-15,Q275919,"{'en': 'Tubas', 'ko': '투바스', 'ja': 'チュバス', 'es': 'Tubas', 'ru': 'Тубас', 'ar': 'طوباس'}",False,169,PS,,,,TBS,governorate
5131,Salfit,Salfit,살피트,サルフィート,Salfit,,Salfit,Сальфит,سلفيت,1,0E-15,0E-15,Q1972013,"{'en': 'Salfit', 'ko': '살피트', 'ja': 'サルフィート', 'es': 'Salfit', 'ru': 'Сальфит', 'ar': 'سلفيت'}",False,169,PS,,,,SLT,governorate
5130,Ramallah,Ramallah,라말라,ラマッラー,Ramallah,,Ramala,Рамалла,رام الله,1,0E-15,0E-15,Q158119,"{'en': 'Ramallah', 'ko': '라말라', 'ja': 'ラマッラー', 'zh-hans': '拉姆安拉', 'zh-hant': '拉姆安拉', 'es': 'Ramala', 'ru': 'Рамалла', 'ar': 'رام الله'}",False,169,PS,,,,RBH,governorate
5129,Rafah,Rafah,Rafah,ラファフ (エジプト),Rafah,,Rafah,Рафах,رفح,1,0E-15,0E-15,Q2457100,"{'en': 'Rafah', 'ja': 'ラファフ (エジプト)', 'ru': 'Рафах', 'ar': 'رفح'}",False,169,PS,,,,RFH,governorate
5128,Qalqilya,Qalqilya,칼킬리야,カルキルヤー,Qalqilya,,Calquelia,Калькилия,قلقيلية,1,0E-15,0E-15,Q623159,"{'en': 'Qalqilya', 'ko': '칼킬리야', 'ja': 'カルキルヤー', 'es': 'Calquelia', 'ru': 'Калькилия', 'ar': 'قلقيلية'}",False,169,PS,,,,QQA,governorate
5127,North Gaza,North Gaza,북가자주,北ガザ県,North Gaza,,Gobernación de Gaza del Norte,Северная Газа,محافظة شمال غزة,1,0E-15,0E-15,Q181636,"{'en': 'North Gaza Governorate', 'ko': '북가자주', 'ja': '北ガザ県', 'es': 'Gobernación de Gaza del Norte', 'ru': 'Северная Газа', 'ar': 'محافظة شمال غزة'}",False,169,PS,,,,NGZ,governorate
5126,Nablus,Nablus,세겜,シェケム,Nablus,,Siquem,Сихем,شكيم,1,0E-15,0E-15,Q7951237,"{'en': 'Shechem', 'ko': '세겜', 'ja': 'シェケム', 'es': 'Siquem', 'ru': 'Сихем', 'ar': 'شكيم'}",False,169,PS,,,,NBS,governorate
5125,Khan Yunis,Khan Yunis,칸유니스,ハーンユーニス,Khan Yunis,,Jan Yunis,Хан-Юнис,خان يونس,1,0E-15,0E-15,Q309348,"{'en': 'Khan Yunis', 'ko': '칸유니스', 'ja': 'ハーンユーニス', 'zh-hans': '汗尤尼斯', 'zh-hant': '汗尤尼斯', 'es': 'Jan Yunis', 'ru': 'Хан-Юнис', 'ar': 'خان يونس'}",False,169,PS,,,,KYS,governorate
5124,Jerusalem,Jerusalem,예루살렘,エルサレム,Jerusalem,,Jerusalén,Иерусалим,القدس,1,0E-15,0E-15,Q1218,"{'en': 'Jerusalem', 'ko': '예루살렘', 'ja': 'エルサレム', 'zh-hans': '耶路撒冷', 'zh-hant': '耶路撒冷', 'es': 'Jerusalén', 'ru': 'Иерусалим', 'ar': 'القدس'}",False,169,PS,,,,JEM,governorate
5123,Jericho and Al Aghwar,Jericho and Al Aghwar,Jericho and Al Aghwar,Jericho and Al Aghwar,Jericho and Al Aghwar,,Jericho and Al Aghwar,Jericho and Al Aghwar,Jericho and Al Aghwar,1,0E-15,0E-15,,,True,169,PS,,,,JRH,governorate
5122,Jenin,Jenin,Jenin,Jenin,Jenin,,Jenin,Jenin,Jenin,1,0E-15,0E-15,Q6177522,{'en': 'Jenin'},False,169,PS,,,,JEN,governorate
5121,Hebron,Hebron,Hebron,Hebron,Hebron,,Hebron,Hebron,Hebron,1,31.532600100000000,35.063947500000000,Q5695991,{'en': 'Hebron'},False,169,PS,,,,HBN,governorate
5120,Gaza,Gaza,Klemzig,クレムジグ,Gaza,,Klemzig,Klemzig,Klemzig,1,0E-15,0E-15,Q1442959,"{'en': 'Klemzig', 'ja': 'クレムジグ', 'zh-hant': '錦林息'}",False,169,PS,,,,GZA,governorate
5119,Deir El Balah,Deir El Balah,Deir al-Balah,ディール・バラフ,Deir El Balah,,Deir al-Balah,Дейр аль-Балах,دير البلح,1,0E-15,0E-15,Q557383,"{'en': 'Deir al-Balah', 'ja': 'ディール・バラフ', 'es': 'Deir al-Balah', 'ru': 'Дейр аль-Балах', 'ar': 'دير البلح'}",False,169,PS,,,,DEB,governorate
5118,Bethlehem,Bethlehem,Bethlehem,Bethlehem,Bethlehem,,Bethlehem,Bethlehem,Bethlehem,1,31.705399600000000,35.193687700000000,Q831318,{'en': 'Bethlehem'},False,169,PS,,,,BTH,governorate
5117,Jämtland County,Jämtland County,옘틀란드주,イェムトランド県,Jämtland County,,Provincia de Jämtland,Емтланд,محافظة يمتلاند,1,63.283062000000000,14.238281000000000,Q103679,"{'en': 'Jämtland County', 'ko': '옘틀란드주', 'ja': 'イェムトランド県', 'zh-hans': '耶姆特兰省', 'zh-hant': '耶姆特蘭省', 'es': 'Provincia de Jämtland', 'ru': 'Емтланд', 'ar': 'محافظة يمتلاند'}",False,213,SE,,,29,0,SE-Z
5116,Nabeul,Nabeul,나뵐주,ナブール県,Nabeul,,Gobernación de Nabeul,Набуль,ولاية نابل,1,36.452459100000000,10.680322200000000,Q328145,"{'en': 'Nabeul Governorate', 'ko': '나뵐주', 'ja': 'ナブール県', 'zh-hans': '纳布勒省', 'zh-hant': '納布勒省', 'es': 'Gobernación de Nabeul', 'ru': 'Набуль', 'ar': 'ولاية نابل'}",False,224,TN,,,19,21,governorate
5115,Western Samar,Western Samar,사마르주,サマル,Western Samar,,Sámar,Самар,سامار,1,12.000020600000000,124.991245200000000,Q13876,"{'en': 'Samar', 'ko': '사마르주', 'ja': 'サマル', 'zh-hans': '萨马', 'es': 'Sámar', 'ru': 'Самар', 'ar': 'سامار'}",False,174,PH,,,,WSA,province
5114,Chari-Baguirmi,Chari-Baguirmi,샤리바기르미주,シャリ＝バギルミ州,Chari-Baguirmi,,Región de Chari-Baguirmi,Шари-Багирми,شاري باقرمي,1,11.461862600000000,15.244639400000000,Q843975,"{'en': 'Chari-Baguirmi Region', 'ko': '샤리바기르미주', 'ja': 'シャリ＝バギルミ州', 'zh-hans': '沙里-巴吉尔米区', 'zh-hant': '沙里-巴吉爾米區', 'es': 'Región de Chari-Baguirmi', 'ru': 'Шари-Багирми', 'ar': 'شاري باقرمي'}",False,43,TD,,,15,CB,province
5113,Zaragoza,Zaragoza,사라고사,サラゴサ,Zaragoza,,Zaragoza,Сарагоса,سرقسطة,1,41.651750100000000,-0.930000200000000,Q10305,"{'en': 'Zaragoza', 'ko': '사라고사', 'ja': 'サラゴサ', 'zh-hans': '萨拉戈萨', 'zh-hant': '薩拉戈薩', 'es': 'Zaragoza', 'ru': 'Сарагоса', 'ar': 'سرقسطة'}",False,207,ES,,,,Z,province
5112,Santa Cruz de Tenerife,Santa Cruz de Tenerife,산타크루스데테네리페,サンタ・クルス・デ・テネリフェ,Santa Cruz de Tenerife,,Santa Cruz de Tenerife,Санта-Крус-де-Тенерифе,سانتا كروث دي تنريفه,1,28.457891400000000,-16.321353900000000,Q14328,"{'en': 'Santa Cruz de Tenerife', 'ko': '산타크루스데테네리페', 'ja': 'サンタ・クルス・デ・テネリフェ', 'zh-hans': '圣克鲁斯-德特内里费', 'zh-hant': '聖克魯斯-德特內里費', 'es': 'Santa Cruz de Tenerife', 'ru': 'Санта-Крус-де-Тенерифе', 'ar': 'سانتا كروث دي تنريفه'}",False,207,ES,,,,TF,province
5111,Teruel,Teruel,테루엘,テルエル,Teruel,,Teruel,Теруэль,طرويل,1,40.345041000000000,-1.118474400000000,Q14336,"{'en': 'Teruel', 'ko': '테루엘', 'ja': 'テルエル', 'zh-hant': '特魯埃爾', 'es': 'Teruel', 'ru': 'Теруэль', 'ar': 'طرويل'}",False,207,ES,,,,TE,province
5110,Castellón,Castellón,카스테욘,カステリョン,Castellón,,provincia de Castellón,Кастельон,قسطلونة,1,39.981143500000000,0.008840700000000,Q54942,"{'en': 'Castellón', 'ko': '카스테욘', 'ja': 'カステリョン', 'es': 'provincia de Castellón', 'ru': 'Кастельон', 'ar': 'قسطلونة'}",False,207,ES,,,,CS,province
5109,Albacete,Albacete,알바세테주,アルバセテ県,Albacete,,provincia de Albacete,Альбасете,البسيط,1,38.992231200000000,-1.878098900000000,Q54889,"{'en': 'Albacete Province', 'ko': '알바세테주', 'ja': 'アルバセテ県', 'zh-hans': '阿尔瓦塞特省', 'es': 'provincia de Albacete', 'ru': 'Альбасете', 'ar': 'البسيط'}",False,207,ES,,,,AB,province
5108,Alicante,Alicante,알리칸테,アリカンテ,Alicante,,Alicante,Аликанте,لقنت,1,38.357954600000000,-0.542563400000000,Q11959,"{'en': 'Alicante', 'ko': '알리칸테', 'ja': 'アリカンテ', 'zh-hans': '阿利坎特', 'zh-hant': '阿利坎特', 'es': 'Alicante', 'ru': 'Аликанте', 'ar': 'لقنت'}",False,207,ES,,,,A,province
5107,Guadalajara,Guadalajara,과달라하라,グアダラハラ,Guadalajara,,Guadalajara,Гвадалахара,وادي الحجارة,1,40.632221400000000,-3.190682000000000,Q11953,"{'en': 'Guadalajara', 'ko': '과달라하라', 'ja': 'グアダラハラ', 'zh-hant': '瓜達拉哈拉', 'es': 'Guadalajara', 'ru': 'Гвадалахара', 'ar': 'وادي الحجارة'}",False,207,ES,,,,GU,province
5106,Cuenca,Cuenca,쿠엥카주,クエンカ県,Cuenca,,provincia de Cuenca,Куэнка,قونكة,1,40.062003600000000,-2.165534400000000,Q54888,"{'en': 'Cuenca Province', 'ko': '쿠엥카주', 'ja': 'クエンカ県', 'es': 'provincia de Cuenca', 'ru': 'Куэнка', 'ar': 'قونكة'}",False,207,ES,,,,CU,province
5105,Ciudad Real,Ciudad Real,시우다드레알,シウダー・レアル,Ciudad Real,,Ciudad Real,Сьюдад-Реаль,ثيوداد ريال,1,38.986075800000000,-3.944497500000000,Q15093,"{'en': 'Ciudad Real', 'ko': '시우다드레알', 'ja': 'シウダー・レアル', 'zh-hans': '雷阿尔城', 'es': 'Ciudad Real', 'ru': 'Сьюдад-Реаль', 'ar': 'ثيوداد ريال'}",False,207,ES,,,,CR,province
5104,Lleida,Lleida,예이다,リェイダ,Lleida,,Lérida,Льейда,لاردة,1,41.618373100000000,0.602425300000000,Q15090,"{'en': 'Lleida', 'ko': '예이다', 'ja': 'リェイダ', 'zh-hant': '萊里達', 'es': 'Lérida', 'ru': 'Льейда', 'ar': 'لاردة'}",False,207,ES,,,,L,province
5103,Girona,Girona,지로나,ジローナ,Girona,,Gerona,Жирона,جرندة,1,41.980344500000000,2.801157700000000,Q7038,"{'en': 'Girona', 'ko': '지로나', 'ja': 'ジローナ', 'zh-hans': '赫罗纳', 'zh-hant': '赫羅納', 'es': 'Gerona', 'ru': 'Жирона', 'ar': 'جرندة'}",False,207,ES,,,,GI,province
5102,Barcelona,Barcelona,바르셀로나,バルセロナ,Barcelona,,Barcelona,Барселона,برشلونة,1,41.392667900000000,2.140189100000000,Q1492,"{'en': 'Barcelona', 'ko': '바르셀로나', 'ja': 'バルセロナ', 'zh-hans': '巴塞罗那', 'zh-hant': '巴塞隆納', 'es': 'Barcelona', 'ru': 'Барселона', 'ar': 'برشلونة'}",False,207,ES,,,,B,province
5101,Málaga,Málaga,말라가,マラガ,Málaga,,Málaga,Малага,مالقة,1,36.718201500000000,-4.519306000000000,Q8851,"{'en': 'Málaga', 'ko': '말라가', 'ja': 'マラガ', 'zh-hans': '马拉加', 'zh-hant': '馬拉加', 'es': 'Málaga', 'ru': 'Малага', 'ar': 'مالقة'}",False,207,ES,,,,MA,province
5100,Jaén,Jaén,하엔,ハエン,Jaén,,Jaén,Хаэн,جَيَّان,1,37.780093100000000,-3.814374500000000,Q15681,"{'en': 'Jaén', 'ko': '하엔', 'ja': 'ハエン', 'zh-hans': '哈恩', 'zh-hant': '哈恩', 'es': 'Jaén', 'ru': 'Хаэн', 'ar': 'جَيَّان'}",False,207,ES,,,,J,province
5099,Huelva,Huelva,우엘바,ウエルバ,Huelva,,Huelva,Уэльва,ولبة,1,37.270866600000000,-6.957199900000000,Q12246,"{'en': 'Huelva', 'ko': '우엘바', 'ja': 'ウエルバ', 'zh-hans': '韦尔瓦', 'zh-hant': '韋爾瓦', 'es': 'Huelva', 'ru': 'Уэльва', 'ar': 'ولبة'}",False,207,ES,,,,H,province
5098,Granada,Granada,그라나다,グラナダ,Granada,,Granada,Гранада,غرناطة,1,37.180941100000000,-3.626291000000000,Q8810,"{'en': 'Granada', 'ko': '그라나다', 'ja': 'グラナダ', 'zh-hans': '格拉纳达', 'zh-hant': '格拉納達', 'es': 'Granada', 'ru': 'Гранада', 'ar': 'غرناطة'}",False,207,ES,,,,GR,province
5097,Córdoba,Córdoba,코르도바,コルドバ,Córdoba,,Córdoba,Кордова,قرطبة,1,36.516385100000000,-6.299976700000000,Q5818,"{'en': 'Córdoba', 'ko': '코르도바', 'ja': 'コルドバ', 'zh-hans': '科尔多瓦', 'zh-hant': '哥多華', 'es': 'Córdoba', 'ru': 'Кордова', 'ar': 'قرطبة'}",False,207,ES,,,,CO,province
5096,Cádiz,Cádiz,카디스,カディス,Cádiz,,Cádiz,Кадис,قادس,1,36.516385100000000,-6.299976700000000,Q15682,"{'en': 'Cádiz', 'ko': '카디스', 'ja': 'カディス', 'zh-hant': '加的斯', 'es': 'Cádiz', 'ru': 'Кадис', 'ar': 'قادس'}",False,207,ES,,,,CA,province
5095,Almeria,Almeria,알메리아,アルメリア,Almeria,,Almería,Альмерия,المرية,1,36.841526800000000,-2.474626100000000,Q10400,"{'en': 'Almería', 'ko': '알메리아', 'ja': 'アルメリア', 'zh-hans': '阿尔梅里亚', 'zh-hant': '阿爾梅里亞', 'es': 'Almería', 'ru': 'Альмерия', 'ar': 'المرية'}",False,207,ES,,,,AL,province
5094,Bizkaia,Bizkaia,비스카야주,ビスカヤ県,Bizkaia,,Vizcaya,Бискайя,بسكاية,1,43.219219900000000,-3.211108700000000,Q93366,"{'en': 'Biscay', 'ko': '비스카야주', 'ja': 'ビスカヤ県', 'zh-hans': '比斯开省', 'zh-hant': '比斯開省', 'es': 'Vizcaya', 'ru': 'Бискайя', 'ar': 'بسكاية'}",False,207,ES,,,,BI,province
5093,Araba,Araba,알라바주,アラバ県,Araba,,Álava,Алава,ألبة,1,42.839511900000000,-3.842377400000000,Q81801,"{'en': 'Álava', 'ko': '알라바주', 'ja': 'アラバ県', 'es': 'Álava', 'ru': 'Алава', 'ar': 'ألبة'}",False,207,ES,,,,VI,province
5092,Badajoz,Badajoz,바다호스주,バダホス県,Badajoz,,provincia de Badajoz,Бадахос,بطليوس,1,38.879374800000000,-7.022698300000000,Q81803,"{'en': 'Badajoz Province', 'ko': '바다호스주', 'ja': 'バダホス県', 'zh-hant': '巴達霍斯省', 'es': 'provincia de Badajoz', 'ru': 'Бадахос', 'ar': 'بطليوس'}",False,207,ES,,,,BA,province
5091,Ourense,Ourense,오렌세주,オウレンセ県,Ourense,,provincia de Orense,Оренсе,أورينسي,1,42.338361300000000,-7.881195100000000,Q95038,"{'en': 'Ourense', 'ko': '오렌세주', 'ja': 'オウレンセ県', 'zh-hant': '奧倫塞省', 'es': 'provincia de Orense', 'ru': 'Оренсе', 'ar': 'أورينسي'}",False,207,ES,,,,OR,province
5090,Lugo,Lugo,루고,ルーゴ (スペイン),Lugo,,Lugo,Луго,لك,1,43.012313700000000,-7.574009600000000,Q11125,"{'en': 'Lugo', 'ko': '루고', 'ja': 'ルーゴ (スペイン)', 'zh-hant': '盧戈', 'es': 'Lugo', 'ru': 'Луго', 'ar': 'لك'}",False,207,ES,,,,LU,province
5089,A Coruña,A Coruña,라코루냐,ア・コルーニャ,A Coruña,,La Coruña,Ла-Корунья,قرجيطة,1,43.361904000000000,-8.430193200000000,Q8757,"{'en': 'A Coruña', 'ko': '라코루냐', 'ja': 'ア・コルーニャ', 'zh-hans': '拉科鲁尼亚', 'zh-hant': '拉科魯尼亞', 'es': 'La Coruña', 'ru': 'Ла-Корунья', 'ar': 'قرجيطة'}",False,207,ES,,,,C,province
5088,Sint Eustatius,Sint Eustatius,신트외스타티위스섬,シント・ユースタティウス島,Sint Eustatius,,San Eustaquio,Синт-Эстатиус,سينت أوستاتيوس,1,17.489030600000000,-62.973555000000000,Q26180,"{'en': 'Sint Eustatius', 'ko': '신트외스타티위스섬', 'ja': 'シント・ユースタティウス島', 'es': 'San Eustaquio', 'ru': 'Синт-Эстатиус', 'ar': 'سينت أوستاتيوس'}",False,155,BQ,,,05,BQ3,special municipality
5087,Saba,Saba,사바섬,サバ島,Saba,,Saba,Саба,سابا,1,17.635464200000000,-63.232676300000000,Q25528,"{'en': 'Saba', 'ko': '사바섬', 'ja': 'サバ島', 'zh-hans': '萨巴', 'zh-hant': '薩巴', 'es': 'Saba', 'ru': 'Саба', 'ar': 'سابا'}",False,155,BQ,,,10,BQ2,special municipality
5086,Bonaire,Bonaire,보네르섬,ボネール島,Bonaire,,Bonaire,Бонайре,بونير,1,12.201890200000000,-68.262382200000000,Q25396,"{'en': 'Bonaire', 'ko': '보네르섬', 'ja': 'ボネール島', 'zh-hans': '博奈尔', 'zh-hant': '波奈', 'es': 'Bonaire', 'ru': 'Бонайре', 'ar': 'بونير'}",False,155,BQ,,,06,BQ1,special municipality
5085,Komárom-Esztergom,Komárom-Esztergom,코마롬에스테르곰주,コマーロム・エステルゴム県,Komárom-Esztergom,,Komárom-Esztergom,Комаром-Эстергом,مقاطعة كوماروم-إستركوم,1,47.577978600000000,18.125685500000000,Q190018,"{'en': 'Komárom-Esztergom County', 'ko': '코마롬에스테르곰주', 'ja': 'コマーロム・エステルゴム県', 'zh-hans': '科马罗姆-埃斯泰尔戈姆州', 'zh-hant': '科馬羅姆-埃斯泰爾戈姆州', 'es': 'Komárom-Esztergom', 'ru': 'Комаром-Эстергом', 'ar': 'مقاطعة كوماروم-إستركوم'}",False,99,HU,,,,KE,county
5084,Trujillo Alto,Trujillo Alto,트루히요알토,トルヒーヨアルト,Trujillo Alto,,Trujillo Alto,Трухильо-Альто,Trujillo Alto,1,18.362778000000000,-66.017500000000000,Q1150895,"{'en': 'Trujillo Alto', 'ko': '트루히요알토', 'ja': 'トルヒーヨアルト', 'zh-hans': '上特鲁希略', 'zh-hant': '上特魯希略', 'es': 'Trujillo Alto', 'ru': 'Трухильо-Альто'}",False,178,PR,,,233,TA,region
5083,Mayagüez,Mayagüez,마야궤스,マヤグエス,Mayagüez,,Mayagüez,Маягуэс,ماياجويز,1,18.201111110000000,-67.139722220000000,Q632727,"{'en': 'Mayagüez', 'ko': '마야궤스', 'ja': 'マヤグエス', 'zh-hans': '马亚圭斯', 'zh-hant': '馬亞圭斯', 'es': 'Mayagüez', 'ru': 'Маягуэс', 'ar': 'ماياجويز'}",False,178,PR,,,233,MG,region
5082,Toa Baja,Toa Baja,Toa Baja,トア・バハ,Toa Baja,,Toa Baja,Тоа-Баха,تواباخا,1,18.443889000000000,-66.259722000000000,Q2238070,"{'en': 'Toa Baja', 'ja': 'トア・バハ', 'es': 'Toa Baja', 'ru': 'Тоа-Баха', 'ar': 'تواباخا'}",False,178,PR,,,233,TB,region
5081,Arecibo,Arecibo,아레시보,アレシボ,Arecibo,,Arecibo,Аресибо,أريسيبو,1,18.470555560000000,-66.720833330000000,Q640728,"{'en': 'Arecibo', 'ko': '아레시보', 'ja': 'アレシボ', 'zh-hant': '阿雷西沃', 'es': 'Arecibo', 'ru': 'Аресибо', 'ar': 'أريسيبو'}",False,178,PR,,,233,AR,region
5080,Guaynabo,Guaynabo,Guaynabo,グアイナボ,Guaynabo,,Guaynabo,Гуайнабо,Guaynabo,1,18.366666670000000,-66.100000000000000,Q590060,"{'en': 'Guaynabo', 'ja': 'グアイナボ', 'zh-hans': '瓜伊纳沃', 'zh-hant': '瓜伊納沃', 'es': 'Guaynabo', 'ru': 'Гуайнабо'}",False,178,PR,,,233,GN,region
5079,Caguas,Caguas,카구아스,カグアス,Caguas,,Caguas,Кагуас,كاغواس,1,18.233333330000000,-66.033333330000000,Q527268,"{'en': 'Caguas', 'ko': '카구아스', 'ja': 'カグアス', 'zh-hant': '卡瓜斯', 'es': 'Caguas', 'ru': 'Кагуас', 'ar': 'كاغواس'}",False,178,PR,,,233,CG,region
5078,Ponce,Ponce,폰세,ポンセ,Ponce,,Ponce,Понсе,بونس، بورتوريكو,1,18.000000000000000,-66.616666670000000,Q864024,"{'en': 'Ponce', 'ko': '폰세', 'ja': 'ポンセ', 'zh-hans': '庞塞', 'zh-hant': '龐塞', 'es': 'Ponce', 'ru': 'Понсе', 'ar': 'بونس، بورتوريكو'}",False,178,PR,,,233,PO,region
5077,Carolina,Carolina,캐롤리나,カロリーナ,Carolina,,Carolina,Каролина,كارولينا (بورتوريكو),1,18.388888890000000,-65.966666670000000,Q990293,"{'en': 'Carolina', 'ko': '캐롤리나', 'ja': 'カロリーナ', 'zh-hans': '卡罗利纳', 'zh-hant': '卡羅利納', 'es': 'Carolina', 'ru': 'Каролина', 'ar': 'كارولينا (بورتوريكو)'}",False,178,PR,,,233,CL,region
5076,Bayamon,Bayamon,Bayamón,Bayamón,Bayamon,,Bayamón,Bayamón,Bayamón,1,18.177777780000000,-66.113333330000000,Q16089204,"{'en': 'Bayamón', 'es': 'Bayamón'}",False,178,PR,,,233,BY,region
5075,San Juan,San Juan,산후안,サン・フアン,San Juan,,San Juan,Сан-Хуан,سان خوان، بورتوريكو,1,18.450000000000000,-66.066666670000000,Q41211,"{'en': 'San Juan', 'ko': '산후안', 'ja': 'サン・フアン', 'zh-hant': '聖胡安', 'es': 'San Juan', 'ru': 'Сан-Хуан', 'ar': 'سان خوان، بورتوريكو'}",False,178,PR,,,233,SJ,region
5074,Saint Croix,Saint Croix,세인트크로이섬,セント・クロイ島,Saint Croix,,Saint Croix,Санта-Крус,سينت كروا,1,17.729352000000000,-64.734370500000000,Q642481,"{'en': 'Saint Croix', 'ko': '세인트크로이섬', 'ja': 'セント・クロイ島', 'zh-hans': '圣克洛伊岛', 'zh-hant': '聖克洛伊島', 'es': 'Saint Croix', 'ru': 'Санта-Крус', 'ar': 'سينت كروا'}",False,242,VI,,,,SC,district
5073,Saint John,Saint John,세인트존섬,セイント・ジョン島,Saint John,,Saint John,Сент-Джон,سانت جون,1,18.335616900000000,-64.800280000000000,Q849441,"{'en': 'Saint John', 'ko': '세인트존섬', 'ja': 'セイント・ジョン島', 'zh-hans': '圣约翰岛', 'zh-hant': '聖約翰島', 'es': 'Saint John', 'ru': 'Сент-Джон', 'ar': 'سانت جون'}",False,242,VI,,,,SJ,district
5072,Saint Thomas,Saint Thomas,세인트토머스섬,セント・トーマス島,Saint Thomas,,Saint Thomas,Сент-Томас,سانت توماس,1,18.342845900000000,-65.077018000000000,Q463937,"{'en': 'Saint Thomas', 'ko': '세인트토머스섬', 'ja': 'セント・トーマス島', 'zh-hans': '圣托马斯岛', 'zh-hant': '聖托馬斯島', 'es': 'Saint Thomas', 'ru': 'Сент-Томас', 'ar': 'سانت توماس'}",False,242,VI,,,,ST,district
5071,Poltavska oblast,Poltavska oblast,폴타바주,ポルタヴァ州,Poltavska oblast,,Óblast de Poltava,Полтавская область,بولتافا أوبلاست,1,49.642919600000000,32.667533900000000,Q169501,"{'en': 'Poltava Oblast', 'ko': '폴타바주', 'ja': 'ポルタヴァ州', 'zh-hans': '波尔塔瓦州', 'zh-hant': '波爾塔瓦州', 'es': 'Óblast de Poltava', 'ru': 'Полтавская область', 'ar': 'بولتافا أوبلاست'}",False,230,UA,,,18,53,region
5070,Kampong Thom,Kampong Thom,캄퐁톰주,コンポントム州,Kampong Thom,,Provincia de Kompung Thom,Кампонгтхом,محافظة كامبونغ ثوم,1,12.816748500000000,103.841310400000000,Q502148,"{'en': 'Kampong Thom Province', 'ko': '캄퐁톰주', 'ja': 'コンポントム州', 'zh-hans': '磅同省', 'zh-hant': '磅同省', 'es': 'Provincia de Kompung Thom', 'ru': 'Кампонгтхом', 'ar': 'محافظة كامبونغ ثوم'}",False,37,KH,,,05,6,province
5069,Karlovac,Karlovac,카를로바츠주,カルロヴァツ郡,Karlovac,,Karlovac,Карловачка,مقاطعة كارلوفاتش,1,45.261335200000000,15.525420160000000,Q57071,"{'en': 'Karlovac County', 'ko': '카를로바츠주', 'ja': 'カルロヴァツ郡', 'zh-hans': '卡尔洛瓦茨县', 'zh-hant': '卡爾洛瓦茨縣', 'es': 'Karlovac', 'ru': 'Карловачка', 'ar': 'مقاطعة كارلوفاتش'}",False,55,HR,,,05,04,county
5068,Loja,Loja,로하주,ロハ県,Loja,,Loja,Лоха,مقاطعة لوخا,1,-3.993130000000000,-79.204220000000000,Q504238,"{'en': 'Loja Province', 'ko': '로하주', 'ja': 'ロハ県', 'zh-hans': '洛哈省', 'zh-hant': '洛哈省', 'es': 'Loja', 'ru': 'Лоха', 'ar': 'مقاطعة لوخا'}",False,64,EC,,,12,L,province
5067,Sharqia,Sharqia,샤르키야주,シャルキーヤ県,Sharqia,,Oriental,Шаркия,محافظة الشرقية,1,30.673054500000000,31.159324700000000,Q31074,"{'en': 'Sharqia Governorate', 'ko': '샤르키야주', 'ja': 'シャルキーヤ県', 'zh-hans': '东部省', 'zh-hant': '東部省', 'es': 'Oriental', 'ru': 'Шаркия', 'ar': 'محافظة الشرقية'}",False,65,EG,,,13,SHR,
5065,French Southern and Antarctic Lands,French Southern and Antarctic Lands,프랑스령 남방 및 남극,フランス領南方・南極地域,French Southern and Antarctic Lands,,Tierras Australes y Antárticas Francesas,Французские Южные и Антарктические территории,أراض فرنسية جنوبية وأنتارتيكية,1,-47.544660400000000,51.283754200000000,Q129003,"{'en': 'French Southern and Antarctic Lands', 'ko': '프랑스령 남방 및 남극', 'ja': 'フランス領南方・南極地域', 'zh-hans': '法属南部和南极领地', 'zh-hant': '法屬南部和南極領地', 'es': 'Tierras Australes y Antárticas Francesas', 'ru': 'Французские Южные и Антарктические территории', 'ar': 'أراض فرنسية جنوبية وأنتارتيكية'}",False,75,FR,,,FS,TF,overseas territory
5064,Clipperton,Clipperton,클리퍼턴섬,クリッパートン島,Clipperton,,Isla Clipperton,Клиппертон,جزيرة كليبرتون,1,10.283354100000000,-109.225421500000000,Q161258,"{'en': 'Clipperton Island', 'ko': '클리퍼턴섬', 'ja': 'クリッパートン島', 'zh-hans': '克利珀顿岛', 'zh-hant': '克利珀頓島', 'es': 'Isla Clipperton', 'ru': 'Клиппертон', 'ar': 'جزيرة كليبرتون'}",False,75,FR,,,IP,CP,dependency
5063,Val-d'Oise,Val-d'Oise,발두아즈주,ヴァル＝ドワーズ県,Val-d'Oise,,Valle del Oise,Валь-д’Уаз,وادي الواز,1,49.075181800000000,1.821691400000000,Q12784,"{'en': ""Val-d'Oise"", 'ko': '발두아즈주', 'ja': 'ヴァル＝ドワーズ県', 'zh-hans': '瓦兹河谷省', 'zh-hant': '瓦茲河谷省', 'es': 'Valle del Oise', 'ru': 'Валь-д’Уаз', 'ar': 'وادي الواز'}",False,75,FR,,,,95,metropolitan department
5062,Val-de-Marne,Val-de-Marne,발드마른주,ヴァル＝ド＝マルヌ県,Val-de-Marne,,Valle del Marne,Валь-де-Марн,وادي المرن,1,48.774700400000000,2.322103900000000,Q12788,"{'en': 'Val-de-Marne', 'ko': '발드마른주', 'ja': 'ヴァル＝ド＝マルヌ県', 'es': 'Valle del Marne', 'ru': 'Валь-де-Марн', 'ar': 'وادي المرن'}",False,75,FR,,,,94,metropolitan department
5061,Seine-Saint-Denis,Seine-Saint-Denis,센생드니주,セーヌ＝サン＝ドニ県,Seine-Saint-Denis,,Sena-Saint Denis,Сен-Сен-Дени,سين سان دوني,1,48.909931800000000,2.305737900000000,Q12761,"{'en': 'Seine-Saint-Denis', 'ko': '센생드니주', 'ja': 'セーヌ＝サン＝ドニ県', 'zh-hant': '塞納-聖但尼省', 'es': 'Sena-Saint Denis', 'ru': 'Сен-Сен-Дени', 'ar': 'سين سان دوني'}",False,75,FR,,,,93,metropolitan department
5060,Hauts-de-Seine,Hauts-de-Seine,오드센주,オー＝ド＝セーヌ県,Hauts-de-Seine,,Altos del Sena,О-де-Сен,أو دو سين,1,48.840300800000000,2.101255900000000,Q12543,"{'en': 'Hauts-de-Seine', 'ko': '오드센주', 'ja': 'オー＝ド＝セーヌ県', 'es': 'Altos del Sena', 'ru': 'О-де-Сен', 'ar': 'أو دو سين'}",False,75,FR,,,,92,metropolitan department
5059,Essonne,Essonne,에손주,エソンヌ県,Essonne,,Essonne,Эсон,إسون,1,48.530461500000000,1.969905600000000,Q3368,"{'en': 'Essonne', 'ko': '에손주', 'ja': 'エソンヌ県', 'es': 'Essonne', 'ru': 'Эсон', 'ar': 'إسون'}",False,75,FR,,,,91,metropolitan department
5058,Territoire de Belfort,Territoire de Belfort,테리투아르드벨포르주,テリトワール・ド・ベルフォール県,Territoire de Belfort,,Territorio de Belfort,Территория Бельфор,إقليم بلفور,1,47.629307200000000,6.669620000000000,Q12782,"{'en': 'Territoire de Belfort', 'ko': '테리투아르드벨포르주', 'ja': 'テリトワール・ド・ベルフォール県', 'zh-hans': '贝尔福地区省', 'es': 'Territorio de Belfort', 'ru': 'Территория Бельфор', 'ar': 'إقليم بلفور'}",False,75,FR,,,,90,metropolitan department
5057,Yonne,Yonne,욘주,ヨンヌ県,Yonne,,Yonne,Йонна,يون,1,47.854761400000000,3.033940400000000,Q12816,"{'en': 'Yonne', 'ko': '욘주', 'ja': 'ヨンヌ県', 'es': 'Yonne', 'ru': 'Йонна', 'ar': 'يون'}",False,75,FR,,,,89,metropolitan department
5056,Vosges,Vosges,보주주,ヴォージュ県,Vosges,,Vosgos,Вогезы,فوج,1,48.163017300000000,5.735560000000000,Q3105,"{'en': 'Vosges', 'ko': '보주주', 'ja': 'ヴォージュ県', 'es': 'Vosgos', 'ru': 'Вогезы', 'ar': 'فوج'}",False,75,FR,,,,88,metropolitan department
5055,Haute-Vienne,Haute-Vienne,오트비엔주,オート＝ヴィエンヌ県,Haute-Vienne,,Alto Vienne,Верхняя Вьенна,فيين العليا,1,45.918687800000000,0.709720600000000,Q12808,"{'en': 'Haute-Vienne', 'ko': '오트비엔주', 'ja': 'オート＝ヴィエンヌ県', 'zh-hans': '上维埃纳省', 'zh-hant': '上维埃纳省', 'es': 'Alto Vienne', 'ru': 'Верхняя Вьенна', 'ar': 'فيين العليا'}",False,75,FR,,,,87,metropolitan department
5054,Vienne,Vienne,비엔주,ヴィエンヌ県,Vienne,,Vienne,Вьенна,فيين,1,45.522131400000000,4.845313600000000,Q12804,"{'en': 'Vienne', 'ko': '비엔주', 'ja': 'ヴィエンヌ県', 'zh-hans': '维埃纳省', 'zh-hant': '維埃納省', 'es': 'Vienne', 'ru': 'Вьенна', 'ar': 'فيين'}",False,75,FR,,,,86,metropolitan department
5053,Vendée,Vendée,방데주,ヴァンデ県,Vendée,,Vandea,Вандея,فونديه,1,46.675410300000000,-2.029839200000000,Q12798,"{'en': 'Vendée', 'ko': '방데주', 'ja': 'ヴァンデ県', 'zh-hant': '旺代省', 'es': 'Vandea', 'ru': 'Вандея', 'ar': 'فونديه'}",False,75,FR,,,,85,metropolitan department
5052,Vaucluse,Vaucluse,보클뤼즈주,ヴォクリューズ県,Vaucluse,,Vaucluse,Воклюз,فوكلوز,1,44.044750000000000,4.642771800000000,Q12792,"{'en': 'Vaucluse', 'ko': '보클뤼즈주', 'ja': 'ヴォクリューズ県', 'zh-hant': '沃克呂茲省', 'es': 'Vaucluse', 'ru': 'Воклюз', 'ar': 'فوكلوز'}",False,75,FR,,,,84,metropolitan department
5051,Var,Var,바르주,ヴァール県,Var,,Var,Вар,فار,1,43.395073000000000,5.734241700000000,Q12789,"{'en': 'Var', 'ko': '바르주', 'ja': 'ヴァール県', 'es': 'Var', 'ru': 'Вар', 'ar': 'فار'}",False,75,FR,,,,83,metropolitan department
5050,Tarn-et-Garonne,Tarn-et-Garonne,타른에가론주,タルヌ＝エ＝ガロンヌ県,Tarn-et-Garonne,,Tarn y Garona,Тарн и Гаронна,تَرن وغارون,1,44.080895000000000,1.089165700000000,Q12779,"{'en': 'Tarn-et-Garonne', 'ko': '타른에가론주', 'ja': 'タルヌ＝エ＝ガロンヌ県', 'zh-hans': '塔恩-加龙省', 'es': 'Tarn y Garona', 'ru': 'Тарн и Гаронна', 'ar': 'تَرن وغارون'}",False,75,FR,,,,82,metropolitan department
5049,Tarn,Tarn,타른주,タルヌ県,Tarn,,Tarn,Тарн,تَرن,1,43.791497700000000,1.675889300000000,Q12772,"{'en': 'Tarn', 'ko': '타른주', 'ja': 'タルヌ県', 'zh-hant': '塔恩省', 'es': 'Tarn', 'ru': 'Тарн', 'ar': 'تَرن'}",False,75,FR,,,,81,metropolitan department
5048,Somme,Somme,솜주,ソンム県,Somme,,Somme,Сомма,سوم,1,49.968592200000000,1.731069600000000,Q12770,"{'en': 'Somme', 'ko': '솜주', 'ja': 'ソンム県', 'es': 'Somme', 'ru': 'Сомма', 'ar': 'سوم'}",False,75,FR,,,,80,metropolitan department
5047,Deux-Sèvres,Deux-Sèvres,되세브르주,ドゥー＝セーヴル県,Deux-Sèvres,,Deux-Sèvres,Дё-Севр,دو سيفر,1,46.538681700000000,-0.901994800000000,Q12765,"{'en': 'Deux-Sèvres', 'ko': '되세브르주', 'ja': 'ドゥー＝セーヴル県', 'zh-hant': '德塞夫勒省', 'es': 'Deux-Sèvres', 'ru': 'Дё-Севр', 'ar': 'دو سيفر'}",False,75,FR,,,,79,metropolitan department
5046,Yvelines,Yvelines,이블린주,イヴリーヌ県,Yvelines,,Yvelines,Ивелин,الإيفلين,1,48.761530100000000,1.277294900000000,Q12820,"{'en': 'Yvelines', 'ko': '이블린주', 'ja': 'イヴリーヌ県', 'zh-hant': '伊夫林', 'es': 'Yvelines', 'ru': 'Ивелин', 'ar': 'الإيفلين'}",False,75,FR,,,,78,metropolitan department
5045,Seine-et-Marne,Seine-et-Marne,센에마른,セーヌ＝エ＝マルヌ県,Seine-et-Marne,,Sena y Marne,Сена и Марна,سين ومرن,1,48.618539400000000,2.415256100000000,Q12753,"{'en': 'Seine-et-Marne', 'ko': '센에마른', 'ja': 'セーヌ＝エ＝マルヌ県', 'zh-hant': '塞納-馬恩省', 'es': 'Sena y Marne', 'ru': 'Сена и Марна', 'ar': 'سين ومرن'}",False,75,FR,,,,77,metropolitan department
5044,Seine-Maritime,Seine-Maritime,센마리팀주,セーヌ＝マリティーム県,Seine-Maritime,,Sena Marítimo,Приморская Сена,السان البحرية,1,49.660968100000000,0.367756100000000,Q12758,"{'en': 'Seine-Maritime', 'ko': '센마리팀주', 'ja': 'セーヌ＝マリティーム県', 'zh-hans': '滨海塞纳省', 'es': 'Sena Marítimo', 'ru': 'Приморская Сена', 'ar': 'السان البحرية'}",False,75,FR,,,,76,metropolitan department
5043,Haute-Savoie,Haute-Savoie,오트사부아주,オート＝サヴォワ県,Haute-Savoie,,Alta Saboya,Верхняя Савойя,سافوا العليا,1,46.044527700000000,5.864138000000000,Q12751,"{'en': 'Haute-Savoie', 'ko': '오트사부아주', 'ja': 'オート＝サヴォワ県', 'zh-hans': '上萨瓦省', 'zh-hant': '上薩瓦省', 'es': 'Alta Saboya', 'ru': 'Верхняя Савойя', 'ar': 'سافوا العليا'}",False,75,FR,,,,74,metropolitan department
5042,Savoie,Savoie,사부아주,サヴォワ,Savoie,,Saboya,Савойя,سافوا,1,45.494699000000000,5.843298400000000,Q12745,"{'en': 'Savoie', 'ko': '사부아주', 'ja': 'サヴォワ', 'es': 'Saboya', 'ru': 'Савойя', 'ar': 'سافوا'}",False,75,FR,,,,73,metropolitan department
5041,Sarthe,Sarthe,사르트주,サルト県,Sarthe,,Sarthe,Сарта,سارت,1,48.026273300000000,-0.326131700000000,Q12740,"{'en': 'Sarthe', 'ko': '사르트주', 'ja': 'サルト県', 'es': 'Sarthe', 'ru': 'Сарта', 'ar': 'سارت'}",False,75,FR,,,,72,metropolitan department
5040,Saône-et-Loire,Saône-et-Loire,손에루아르주,ソーヌ＝エ＝ロワール県,Saône-et-Loire,,Saona y Loira,Сона и Луара,سون ولوار,1,46.655488300000000,3.983505000000000,Q12736,"{'en': 'Saône-et-Loire', 'ko': '손에루아르주', 'ja': 'ソーヌ＝エ＝ロワール県', 'zh-hant': '索恩-盧瓦爾省', 'es': 'Saona y Loira', 'ru': 'Сона и Луара', 'ar': 'سون ولوار'}",False,75,FR,,,,71,metropolitan department
5039,Haute-Saône,Haute-Saône,오트손주,オート＝ソーヌ県,Haute-Saône,,Alto Saona,Верхняя Сона,سون العليا,1,47.637899600000000,5.535505500000000,Q12730,"{'en': 'Haute-Saône', 'ko': '오트손주', 'ja': 'オート＝ソーヌ県', 'es': 'Alto Saona', 'ru': 'Верхняя Сона', 'ar': 'سون العليا'}",False,75,FR,,,,70,metropolitan department
5038,Métropole de Lyon,Métropole de Lyon,리옹 광역시,メトロポール・ド・リヨン,Métropole de Lyon,,Metrópoli de Lyon,Лионская метрополия,منطقة ليون الحضرية,1,45.748262900000000,4.595840400000000,Q16665897,"{'en': 'Metropolis of Lyon', 'ko': '리옹 광역시', 'ja': 'メトロポール・ド・リヨン', 'zh-hans': '里昂大都会', 'es': 'Metrópoli de Lyon', 'ru': 'Лионская метрополия', 'ar': 'منطقة ليون الحضرية'}",False,75,FR,,,,69M,metropolitan department
5037,Rhône,Rhône,론주,ローヌ県,Rhône,,Ródano,Рона,رون,1,44.934330000000000,4.240932900000000,Q46130,"{'en': 'Rhône', 'ko': '론주', 'ja': 'ローヌ県', 'es': 'Ródano', 'ru': 'Рона', 'ar': 'رون'}",False,75,FR,,,,69,metropolitan department
5036,Haut-Rhin,Haut-Rhin,오랭주,オー＝ラン県,Haut-Rhin,,Alto Rin,Верхний Рейн,الراين الأعلى,1,47.865377400000000,6.671138100000000,Q12722,"{'en': 'Haut-Rhin', 'ko': '오랭주', 'ja': 'オー＝ラン県', 'es': 'Alto Rin', 'ru': 'Верхний Рейн', 'ar': 'الراين الأعلى'}",False,75,FR,,,,68,metropolitan department
5035,Bas-Rhin,Bas-Rhin,바랭주,バ＝ラン県,Bas-Rhin,,Bajo Rin,Нижний Рейн,الراين الأسفل,1,48.598644400000000,7.026667600000000,Q12717,"{'en': 'Bas-Rhin', 'ko': '바랭주', 'ja': 'バ＝ラン県', 'es': 'Bajo Rin', 'ru': 'Нижний Рейн', 'ar': 'الراين الأسفل'}",False,75,FR,,,,67,metropolitan department
5034,Pyrénées-Orientales,Pyrénées-Orientales,피레네오리앙탈 주,ピレネー＝オリアンタル県,Pyrénées-Orientales,,Pirineos Orientales,Восточные Пиренеи,البرانيس الشرقية,1,42.625417900000000,1.889295800000000,Q12709,"{'en': 'Pyrénées-Orientales', 'ko': '피레네오리앙탈 주', 'ja': 'ピレネー＝オリアンタル県', 'zh-hans': '东比利牛斯省', 'zh-hant': '東比利牛斯省', 'es': 'Pirineos Orientales', 'ru': 'Восточные Пиренеи', 'ar': 'البرانيس الشرقية'}",False,75,FR,,,,66,metropolitan department
5033,Hautes-Pyrénées,Hautes-Pyrénées,오트피레네주,オート＝ピレネー県,Hautes-Pyrénées,,Altos Pirineos,Верхние Пиренеи,البرانيس العليا,1,43.142946200000000,-0.400973600000000,Q12700,"{'en': 'Hautes-Pyrénées', 'ko': '오트피레네주', 'ja': 'オート＝ピレネー県', 'es': 'Altos Pirineos', 'ru': 'Верхние Пиренеи', 'ar': 'البرانيس العليا'}",False,75,FR,,,,65,metropolitan department
5032,Pyrénées-Atlantiques,Pyrénées-Atlantiques,피레네자틀랑티크주,ピレネー＝アトランティック県,Pyrénées-Atlantiques,,Pirineos Atlánticos,Атлантические Пиренеи,البرانس الأطلسية,1,43.186817000000000,-1.441707100000000,Q12703,"{'en': 'Pyrénées-Atlantiques', 'ko': '피레네자틀랑티크주', 'ja': 'ピレネー＝アトランティック県', 'zh-hans': '大西洋比利牛斯省', 'zh-hant': '大西洋比利牛斯省', 'es': 'Pirineos Atlánticos', 'ru': 'Атлантические Пиренеи', 'ar': 'البرانس الأطلسية'}",False,75,FR,,,,64,metropolitan department
5031,Puy-de-Dôme,Puy-de-Dôme,퓌드돔주,ピュイ＝ド＝ドーム県,Puy-de-Dôme,,Puy-de-Dôme,Пюи-де-Дом,بوي دي دوم,1,45.771418500000000,2.626267600000000,Q12694,"{'en': 'Puy-de-Dôme', 'ko': '퓌드돔주', 'ja': 'ピュイ＝ド＝ドーム県', 'zh-hant': '多姆山省', 'es': 'Puy-de-Dôme', 'ru': 'Пюи-де-Дом', 'ar': 'بوي دي دوم'}",False,75,FR,,,,63,metropolitan department
5030,Pas-de-Calais,Pas-de-Calais,파드칼레주,パ＝ド＝カレー県,Pas-de-Calais,,Paso de Calais,Па-де-Кале,باد كاليه,1,50.514469900000000,1.811498000000000,Q12689,"{'en': 'Pas-de-Calais', 'ko': '파드칼레주', 'ja': 'パ＝ド＝カレー県', 'zh-hans': '加来海峡省', 'zh-hant': '加萊海峽', 'es': 'Paso de Calais', 'ru': 'Па-де-Кале', 'ar': 'باد كاليه'}",False,75,FR,,,,62,metropolitan department
5029,Orne,Orne,오른주,オルヌ県,Orne,,Orne,Орн,أورن,1,48.575764400000000,-0.502429500000000,Q12679,"{'en': 'Orne', 'ko': '오른주', 'ja': 'オルヌ県', 'zh-hans': '奥恩省', 'es': 'Orne', 'ru': 'Орн', 'ar': 'أورن'}",False,75,FR,,,,61,metropolitan department
5028,Oise,Oise,우아즈주,オワーズ県,Oise,,Oise,Уаза,واز,1,49.411733500000000,1.866882500000000,Q12675,"{'en': 'Oise', 'ko': '우아즈주', 'ja': 'オワーズ県', 'zh-hans': '瓦兹省', 'zh-hant': '瓦茲省', 'es': 'Oise', 'ru': 'Уаза', 'ar': 'واز'}",False,75,FR,,,,60,metropolitan department
5027,Nord,Nord,노르주,ノール県,Nord,,Norte,Нор,نور,1,50.528547700000000,2.600077600000000,Q12661,"{'en': 'Nord', 'ko': '노르주', 'ja': 'ノール県', 'zh-hant': '諾爾省', 'es': 'Norte', 'ru': 'Нор', 'ar': 'نور'}",False,75,FR,,,,59,metropolitan department
5026,Nièvre,Nièvre,니에브르주,ニエーヴル県,Nièvre,,Nièvre,Ньевр,نِيَفر,1,47.119216400000000,2.977971300000000,Q12657,"{'en': 'Nièvre', 'ko': '니에브르주', 'ja': 'ニエーヴル県', 'es': 'Nièvre', 'ru': 'Ньевр', 'ar': 'نِيَفر'}",False,75,FR,,,,58,metropolitan department
5025,Moselle,Moselle,모젤주,モゼル県,Moselle,,Mosela,Мозель,موزيل,1,49.020456600000000,6.205532200000000,Q12652,"{'en': 'Moselle', 'ko': '모젤주', 'ja': 'モゼル県', 'zh-hans': '摩泽尔省', 'zh-hant': '摩澤爾省', 'es': 'Mosela', 'ru': 'Мозель', 'ar': 'موزيل'}",False,75,FR,,,,57,metropolitan department
5024,Morbihan,Morbihan,모르비앙주,モルビアン県,Morbihan,,Morbihan,Морбиан,مُربِيَان,1,47.743951800000000,-3.445552400000000,Q12642,"{'en': 'Morbihan', 'ko': '모르비앙주', 'ja': 'モルビアン県', 'es': 'Morbihan', 'ru': 'Морбиан', 'ar': 'مُربِيَان'}",False,75,FR,,,,56,metropolitan department
5023,Meuse,Meuse,뫼즈주,ムーズ県,Meuse,,Mosa,Мёз,موز,1,49.012462000000000,4.810873400000000,Q12631,"{'en': 'Meuse', 'ko': '뫼즈주', 'ja': 'ムーズ県', 'es': 'Mosa', 'ru': 'Мёз', 'ar': 'موز'}",False,75,FR,,,,55,metropolitan department
5022,Meurthe-et-Moselle,Meurthe-et-Moselle,뫼르테모젤주,ムルト＝エ＝モゼル県,Meurthe-et-Moselle,,Meurthe y Mosela,Мёрт и Мозель,مورت وموزيل,1,48.955661500000000,5.714235000000000,Q12626,"{'en': 'Meurthe-et-Moselle', 'ko': '뫼르테모젤주', 'ja': 'ムルト＝エ＝モゼル県', 'es': 'Meurthe y Mosela', 'ru': 'Мёрт и Мозель', 'ar': 'مورت وموزيل'}",False,75,FR,,,,54,metropolitan department
5021,Mayenne,Mayenne,마옌주,マイエンヌ県,Mayenne,,Mayenne,Майен,مَيْيِن,1,48.306684200000000,-0.649018200000000,Q12620,"{'en': 'Mayenne', 'ko': '마옌주', 'ja': 'マイエンヌ県', 'zh-hans': '马耶讷省', 'zh-hant': '馬耶訥省', 'es': 'Mayenne', 'ru': 'Майен', 'ar': 'مَيْيِن'}",False,75,FR,,,,53,metropolitan department
5020,Haute-Marne,Haute-Marne,오트마른주,オート＝マルヌ県,Haute-Marne,,Alto Marne,Верхняя Марна,المرن الأعلى,1,48.132482100000000,4.698349900000000,Q12607,"{'en': 'Haute-Marne', 'ko': '오트마른주', 'ja': 'オート＝マルヌ県', 'zh-hans': '上马恩省', 'zh-hant': '上馬恩省', 'es': 'Alto Marne', 'ru': 'Верхняя Марна', 'ar': 'المرن الأعلى'}",False,75,FR,,,,52,metropolitan department
5019,Marne,Marne,마른주,マルヌ県,Marne,,Marne,Марна,المَرْن,1,48.961074500000000,3.657376700000000,Q12594,"{'en': 'Marne', 'ko': '마른주', 'ja': 'マルヌ県', 'zh-hans': '马恩省', 'zh-hant': '馬恩省', 'es': 'Marne', 'ru': 'Марна', 'ar': 'المَرْن'}",False,75,FR,,,,51,metropolitan department
5018,Manche,Manche,망슈주,マンシュ県,Manche,,Mancha,Манш,المنش,1,49.088173400000000,-2.462720900000000,Q12589,"{'en': 'Manche', 'ko': '망슈주', 'ja': 'マンシュ県', 'zh-hans': '芒什省', 'zh-hant': '芒什省', 'es': 'Mancha', 'ru': 'Манш', 'ar': 'المنش'}",False,75,FR,,,,50,metropolitan department
5017,Maine-et-Loire,Maine-et-Loire,멘에루아르주,メーヌ＝エ＝ロワール県,Maine-et-Loire,,Maine y Loira,Мен и Луара,ماين ولوار,1,47.389003400000000,-1.120252700000000,Q12584,"{'en': 'Maine-et-Loire', 'ko': '멘에루아르주', 'ja': 'メーヌ＝エ＝ロワール県', 'zh-hans': '曼恩-卢瓦尔省', 'zh-hant': '曼恩-盧瓦爾省', 'es': 'Maine y Loira', 'ru': 'Мен и Луара', 'ar': 'ماين ولوار'}",False,75,FR,,,,49,metropolitan department
5016,Lozère,Lozère,로제르주,ロゼール県,Lozère,,Lozère,Лозер,لوزار,1,44.542277900000000,2.929345900000000,Q12580,"{'en': 'Lozère', 'ko': '로제르주', 'ja': 'ロゼール県', 'zh-hans': '洛泽尔省', 'zh-hant': '洛澤爾省', 'es': 'Lozère', 'ru': 'Лозер', 'ar': 'لوزار'}",False,75,FR,,,,48,metropolitan department
5015,Lot-et-Garonne,Lot-et-Garonne,로트에가론주,ロット＝エ＝ガロンヌ県,Lot-et-Garonne,,Lot y Garona,Ло и Гаронна,لوت وغارون,1,44.368731400000000,-0.091616900000000,Q12578,"{'en': 'Lot-et-Garonne', 'ko': '로트에가론주', 'ja': 'ロット＝エ＝ガロンヌ県', 'zh-hans': '洛特-加龙省', 'zh-hant': '洛特-加龍省', 'es': 'Lot y Garona', 'ru': 'Ло и Гаронна', 'ar': 'لوت وغارون'}",False,75,FR,,,,47,metropolitan department
5014,Lot,Lot,로트주,ロット県,Lot,,Lot,Ло,لوت,1,44.624607000000000,1.035763100000000,Q12576,"{'en': 'Lot', 'ko': '로트주', 'ja': 'ロット県', 'zh-hans': '洛特省', 'zh-hant': '洛特省', 'es': 'Lot', 'ru': 'Ло', 'ar': 'لوت'}",False,75,FR,,,,46,metropolitan department
5013,Loiret,Loiret,루아레주,ロワレ県,Loiret,,Loiret,Луаре,لواريت,1,47.913543100000000,1.760099000000000,Q12574,"{'en': 'Loiret', 'ko': '루아레주', 'ja': 'ロワレ県', 'zh-hans': '卢瓦雷省', 'zh-hant': '盧瓦雷省', 'es': 'Loiret', 'ru': 'Луаре', 'ar': 'لواريت'}",False,75,FR,,,,45,metropolitan department
5012,Loire-Atlantique,Loire-Atlantique,루아르아틀랑티크주,ロワール＝アトランティック県,Loire-Atlantique,,Loira Atlántico,Атлантическая Луара,لوار الأطلسية,1,47.347572100000000,-2.346631200000000,Q3068,"{'en': 'Loire-Atlantique', 'ko': '루아르아틀랑티크주', 'ja': 'ロワール＝アトランティック県', 'zh-hans': '大西洋卢瓦尔省', 'zh-hant': '大西洋盧瓦爾省', 'es': 'Loira Atlántico', 'ru': 'Атлантическая Луара', 'ar': 'لوار الأطلسية'}",False,75,FR,,,,44,metropolitan department
5011,Haute-Loire,Haute-Loire,오트루아르주,オート＝ロワール県,Haute-Loire,,Alto Loira,Верхняя Луара,لوار العليا,1,45.085380600000000,3.226070700000000,Q12572,"{'en': 'Haute-Loire', 'ko': '오트루아르주', 'ja': 'オート＝ロワール県', 'zh-hans': '上卢瓦尔省', 'zh-hant': '上羅亞爾省', 'es': 'Alto Loira', 'ru': 'Верхняя Луара', 'ar': 'لوار العليا'}",False,75,FR,,,,43,metropolitan department
5010,Loire,Loire,루아르강,ロワール川,Loire,,Loira,Луара,لوار,1,46.352281200000000,-1.175633900000000,Q1469,"{'en': 'Loire', 'ko': '루아르강', 'ja': 'ロワール川', 'es': 'Loira', 'ru': 'Луара', 'ar': 'لوار'}",False,75,FR,,,,42,metropolitan department
5009,Loir-et-Cher,Loir-et-Cher,루아르에셰르주,ロワール＝エ＝シェール県,Loir-et-Cher,,Loir y Cher,Луар и Шер,لوار وشير,1,47.659376000000000,0.853763100000000,Q12564,"{'en': 'Loir-et-Cher', 'ko': '루아르에셰르주', 'ja': 'ロワール＝エ＝シェール県', 'zh-hans': '卢瓦-谢尔省', 'zh-hant': '盧瓦-謝爾省', 'es': 'Loir y Cher', 'ru': 'Луар и Шер', 'ar': 'لوار وشير'}",False,75,FR,,,,41,metropolitan department
5008,Landes,Landes,랑드주,ランド県,Landes,,Landas,Ланды,لاند,1,44.009508000000000,-1.253857900000000,Q12563,"{'en': 'Landes', 'ko': '랑드주', 'ja': 'ランド県', 'zh-hans': '朗德省', 'zh-hant': '朗德省', 'es': 'Landas', 'ru': 'Ланды', 'ar': 'لاند'}",False,75,FR,,,,40,metropolitan department
5007,Jura,Jura,쥐라주,ジュラ県,Jura,,Jura,Юра,جورا,1,46.782874100000000,5.169184400000000,Q3120,"{'en': 'Jura', 'ko': '쥐라주', 'ja': 'ジュラ県', 'zh-hans': '汝拉省', 'zh-hant': '侏羅省', 'es': 'Jura', 'ru': 'Юра', 'ar': 'جورا'}",False,75,FR,,,,39,metropolitan department
5006,Isère,Isère,이제르주,イゼール県,Isère,,Isère,Изер,إزار,1,45.289227100000000,4.990235500000000,Q12559,"{'en': 'Isère', 'ko': '이제르주', 'ja': 'イゼール県', 'zh-hans': '伊泽尔省', 'zh-hant': '伊澤爾省', 'es': 'Isère', 'ru': 'Изер', 'ar': 'إزار'}",False,75,FR,,,,38,metropolitan department
5005,Indre-et-Loire,Indre-et-Loire,앵드르에루아르주,アンドル＝エ＝ロワール県,Indre-et-Loire,,Indre y Loira,Эндр и Луара,أندر ولوار,1,47.222858200000000,0.148961900000000,Q12556,"{'en': 'Indre-et-Loire', 'ko': '앵드르에루아르주', 'ja': 'アンドル＝エ＝ロワール県', 'zh-hans': '安德尔-卢瓦尔省', 'zh-hant': '安德爾-羅亞爾省', 'es': 'Indre y Loira', 'ru': 'Эндр и Луара', 'ar': 'أندر ولوار'}",False,75,FR,,,,37,metropolitan department
5004,Indre,Indre,앵드르주,アンドル県,Indre,,Indre,Эндр,أندر,1,46.811755000000000,0.975552300000000,Q12553,"{'en': 'Indre', 'ko': '앵드르주', 'ja': 'アンドル県', 'zh-hans': '安德尔省', 'zh-hant': '安德爾省', 'es': 'Indre', 'ru': 'Эндр', 'ar': 'أندر'}",False,75,FR,,,,36,metropolitan department
5003,Ille-et-Vilaine,Ille-et-Vilaine,일에빌렌주,イル＝エ＝ヴィレーヌ県,Ille-et-Vilaine,,Ille y Vilaine,Иль и Вилен,إيل وفيلان,1,48.176248400000000,-2.213040100000000,Q12549,"{'en': 'Ille-et-Vilaine', 'ko': '일에빌렌주', 'ja': 'イル＝エ＝ヴィレーヌ県', 'zh-hans': '伊勒-维莱讷省', 'zh-hant': '伊勒-維連省', 'es': 'Ille y Vilaine', 'ru': 'Иль и Вилен', 'ar': 'إيل وفيلان'}",False,75,FR,,,,35,metropolitan department
5002,Hérault,Hérault,에로주,エロー県,Hérault,,Hérault,Эро,إيرو,1,43.591112000000000,2.806610800000000,Q12545,"{'en': 'Hérault', 'ko': '에로주', 'ja': 'エロー県', 'zh-hans': '埃罗省', 'zh-hant': '埃羅省', 'es': 'Hérault', 'ru': 'Эро', 'ar': 'إيرو'}",False,75,FR,,,,34,metropolitan department
5001,Gironde,Gironde,지롱드주,ジロンド県,Gironde,,Gironda,Жиронда,جيروند,1,44.895846900000000,-1.594053200000000,Q12526,"{'en': 'Gironde', 'ko': '지롱드주', 'ja': 'ジロンド県', 'zh-hans': '吉伦特省', 'zh-hant': '吉倫特省', 'es': 'Gironda', 'ru': 'Жиронда', 'ar': 'جيروند'}",False,75,FR,,,,33,metropolitan department
5000,Gers,Gers,제르주,ジェール県,Gers,,Gers,Жер,جارس,1,43.695053400000000,-0.099972800000000,Q12517,"{'en': 'Gers', 'ko': '제르주', 'ja': 'ジェール県', 'zh-hans': '热尔省', 'zh-hant': '熱爾省', 'es': 'Gers', 'ru': 'Жер', 'ar': 'جارس'}",False,75,FR,,,,32,metropolitan department
4999,Haute-Garonne,Haute-Garonne,오트가론주,オート＝ガロンヌ県,Haute-Garonne,,Alto Garona,Верхняя Гаронна,غارون العليا,1,43.305055500000000,0.684551500000000,Q12538,"{'en': 'Haute-Garonne', 'ko': '오트가론주', 'ja': 'オート＝ガロンヌ県', 'zh-hans': '上加龙省', 'zh-hant': '上加龍省', 'es': 'Alto Garona', 'ru': 'Верхняя Гаронна', 'ar': 'غارون العليا'}",False,75,FR,,,,31,metropolitan department
4998,Gard,Gard,가르주,ガール県,Gard,,Gard,Гар,غارد,1,43.959527600000000,3.493568100000000,Q12515,"{'en': 'Gard', 'ko': '가르주', 'ja': 'ガール県', 'zh-hans': '加尔省', 'zh-hant': '加爾省', 'es': 'Gard', 'ru': 'Гар', 'ar': 'غارد'}",False,75,FR,,,,30,metropolitan department
4997,Haute-Corse,Haute-Corse,오트코르스주,オート＝コルス県,Haute-Corse,,Alta Córcega,Верхняя Корсика,كورسيكا العليا,1,42.429586600000000,8.506256100000000,Q3334,"{'en': 'Haute-Corse', 'ko': '오트코르스주', 'ja': 'オート＝コルス県', 'zh-hans': '上科西嘉', 'zh-hant': '上科西嘉', 'es': 'Alta Córcega', 'ru': 'Верхняя Корсика', 'ar': 'كورسيكا العليا'}",False,75,FR,,,,2B,metropolitan department
4996,Corse-du-Sud,Corse-du-Sud,코르스뒤쉬드주,コルス＝デュ＝シュド県,Corse-du-Sud,,Córcega del Sur,Южная Корсика,كورسيكا الجنوبية,1,41.857205500000000,8.410918300000000,Q3336,"{'en': 'Corse-du-Sud', 'ko': '코르스뒤쉬드주', 'ja': 'コルス＝デュ＝シュド県', 'zh-hans': '南科西嘉', 'zh-hant': '南科西嘉', 'es': 'Córcega del Sur', 'ru': 'Южная Корсика', 'ar': 'كورسيكا الجنوبية'}",False,75,FR,,,,2A,metropolitan department
4995,Finistère,Finistère,피니스테르주,フィニステール県,Finistère,,Finisterre,Финистер,فنستير,1,48.226961000000000,-4.824373300000000,Q3389,"{'en': 'Finistère', 'ko': '피니스테르주', 'ja': 'フィニステール県', 'zh-hans': '菲尼斯泰尔省', 'zh-hant': '菲尼斯泰爾省', 'es': 'Finisterre', 'ru': 'Финистер', 'ar': 'فنستير'}",False,75,FR,,,,29,metropolitan department
4994,Eure-et-Loir,Eure-et-Loir,외르에루아르주,ウール＝エ＝ロワール県,Eure-et-Loir,,Eure y Loir,Эр и Луар,أور ولوار,1,48.446978400000000,0.814702500000000,Q3377,"{'en': 'Eure-et-Loir', 'ko': '외르에루아르주', 'ja': 'ウール＝エ＝ロワール県', 'zh-hans': '厄尔-卢瓦省', 'zh-hant': '厄爾-盧瓦省', 'es': 'Eure y Loir', 'ru': 'Эр и Луар', 'ar': 'أور ولوار'}",False,75,FR,,,,28,metropolitan department
4993,Eure,Eure,외르주,ウール県,Eure,,Eure,Эр,أور,1,49.075403500000000,0.489373200000000,Q3372,"{'en': 'Eure', 'ko': '외르주', 'ja': 'ウール県', 'zh-hans': '厄尔省', 'zh-hant': '厄爾省', 'es': 'Eure', 'ru': 'Эр', 'ar': 'أور'}",False,75,FR,,,,27,metropolitan department
4992,Drôme,Drôme,드롬주,ドローム県,Drôme,,Drôme,Дром,دروم,1,44.729335700000000,4.678215800000000,Q3364,"{'en': 'Drôme', 'ko': '드롬주', 'ja': 'ドローム県', 'zh-hans': '德龙省', 'zh-hant': '德龍省', 'es': 'Drôme', 'ru': 'Дром', 'ar': 'دروم'}",False,75,FR,,,,26,metropolitan department
4991,Doubs,Doubs,두주,ドゥー県,Doubs,,Doubs,Ду,دوبس,1,46.932177400000000,6.347621400000000,Q3361,"{'en': 'Doubs', 'ko': '두주', 'ja': 'ドゥー県', 'zh-hans': '杜省', 'zh-hant': '杜省', 'es': 'Doubs', 'ru': 'Ду', 'ar': 'دوبس'}",False,75,FR,,,,25,metropolitan department
4990,Dordogne,Dordogne,도르도뉴주,ドルドーニュ県,Dordogne,,Dordoña,Дордонь,دُردُنية,1,45.142341600000000,0.142740800000000,Q3357,"{'en': 'Dordogne', 'ko': '도르도뉴주', 'ja': 'ドルドーニュ県', 'zh-hans': '多尔多涅省', 'zh-hant': '多爾多涅省', 'es': 'Dordoña', 'ru': 'Дордонь', 'ar': 'دُردُنية'}",False,75,FR,,,,24,metropolitan department
4989,Creuse,Creuse,크뢰즈주,クルーズ県,Creuse,,Creuse,Крёз,كروز,1,46.059039400000000,1.431505000000000,Q3353,"{'en': 'Creuse', 'ko': '크뢰즈주', 'ja': 'クルーズ県', 'zh-hans': '克勒兹省', 'zh-hant': '克勒茲省', 'es': 'Creuse', 'ru': 'Крёз', 'ar': 'كروز'}",False,75,FR,,,,23,metropolitan department
4988,Côtes-d'Armor,Côtes-d'Armor,코트다르모르주,コート＝ダルモール県,Côtes-d'Armor,,Côtes-d'Armor,Кот-д’Армор,كوت درمور,1,48.466333600000000,-3.347896100000000,Q3349,"{'en': ""Côtes-d'Armor"", 'ko': '코트다르모르주', 'ja': 'コート＝ダルモール県', 'zh-hans': '阿摩尔滨海省', 'zh-hant': '阿摩爾濱海省', 'es': ""Côtes-d'Armor"", 'ru': 'Кот-д’Армор', 'ar': 'كوت درمور'}",False,75,FR,,,,22,metropolitan department
4987,Côte-d'Or,Côte-d'Or,코트도르주,コート＝ドール県,Côte-d'Or,,Côte-d’Or,Кот-д’Ор,كوت دور,1,47.465130200000000,4.231549500000000,Q3342,"{'en': 'Côte-d’Or', 'ko': '코트도르주', 'ja': 'コート＝ドール県', 'zh-hans': '科多尔省', 'zh-hant': '科多爾省', 'es': 'Côte-d’Or', 'ru': 'Кот-д’Ор', 'ar': 'كوت دور'}",False,75,FR,,,,21,metropolitan department
4986,Corrèze,Corrèze,코레즈주,コレーズ県,Corrèze,,Corrèze,Коррез,كوريز,1,45.342370700000000,1.317173300000000,Q3326,"{'en': 'Corrèze', 'ko': '코레즈주', 'ja': 'コレーズ県', 'zh-hans': '科雷兹省', 'zh-hant': '科雷茲省', 'es': 'Corrèze', 'ru': 'Коррез', 'ar': 'كوريز'}",False,75,FR,,,,19,metropolitan department
4985,Cher,Cher,셰르주,シェール県,Cher,,Cher,Шер,شير,1,47.024362800000000,1.866273200000000,Q3286,"{'en': 'Cher', 'ko': '셰르주', 'ja': 'シェール県', 'zh-hans': '谢尔省', 'zh-hant': '謝爾省', 'es': 'Cher', 'ru': 'Шер', 'ar': 'شير'}",False,75,FR,,,,18,metropolitan department
4984,Charente-Maritime,Charente-Maritime,샤랑트마리팀주,シャラント＝マリティーム県,Charente-Maritime,,Charente Marítimo,Приморская Шаранта,شرنت البحرية,1,45.729682800000000,-1.338811600000000,Q3278,"{'en': 'Charente-Maritime', 'ko': '샤랑트마리팀주', 'ja': 'シャラント＝マリティーム県', 'zh-hans': '滨海夏朗德省', 'zh-hant': '濱海夏朗德省', 'es': 'Charente Marítimo', 'ru': 'Приморская Шаранта', 'ar': 'شرنت البحرية'}",False,75,FR,,,,17,metropolitan department
4983,Charente,Charente,샤랑트주,シャラント県,Charente,,Charente,Шаранта,شَرَنت,1,45.665847900000000,-0.318457700000000,Q3266,"{'en': 'Charente', 'ko': '샤랑트주', 'ja': 'シャラント県', 'zh-hans': '夏朗德省', 'zh-hant': '夏朗德省', 'es': 'Charente', 'ru': 'Шаранта', 'ar': 'شَرَنت'}",False,75,FR,,,,16,metropolitan department
4982,Cantal,Cantal,캉탈주,カンタル県,Cantal,,Cantal,Канталь,كنتال,1,45.049217700000000,2.156727200000000,Q3259,"{'en': 'Cantal', 'ko': '캉탈주', 'ja': 'カンタル県', 'zh-hans': '康塔尔省', 'zh-hant': '康塔爾省', 'es': 'Cantal', 'ru': 'Канталь', 'ar': 'كنتال'}",False,75,FR,,,,15,metropolitan department
4981,Calvados,Calvados,칼바도스주,カルヴァドス県,Calvados,,Calvados,Кальвадос,كلفادوس,1,49.090351400000000,-0.917064800000000,Q3249,"{'en': 'Calvados', 'ko': '칼바도스주', 'ja': 'カルヴァドス県', 'zh-hans': '卡尔瓦多斯省', 'zh-hant': '卡爾瓦多斯省', 'es': 'Calvados', 'ru': 'Кальвадос', 'ar': 'كلفادوس'}",False,75,FR,,,,14,metropolitan department
4979,Bouches-du-Rhône,Bouches-du-Rhône,부슈뒤론주,ブーシュ＝デュ＝ローヌ県,Bouches-du-Rhône,,Bocas del Ródano,Буш-дю-Рон,بوش دو رون,1,43.540386500000000,4.461382900000000,Q3240,"{'en': 'Bouches-du-Rhône', 'ko': '부슈뒤론주', 'ja': 'ブーシュ＝デュ＝ローヌ県', 'zh-hans': '罗讷河口省', 'zh-hant': '隆河河口省', 'es': 'Bocas del Ródano', 'ru': 'Буш-дю-Рон', 'ar': 'بوش دو رون'}",False,75,FR,,,,13,metropolitan department
4978,Aveyron,Aveyron,아베롱주,アヴェロン県,Aveyron,,Aveyron,Аверон,أفيرون,1,44.315636200000000,2.085237900000000,Q3216,"{'en': 'Aveyron', 'ko': '아베롱주', 'ja': 'アヴェロン県', 'zh-hans': '阿韦龙省', 'zh-hant': '阿韋龍省', 'es': 'Aveyron', 'ru': 'Аверон', 'ar': 'أفيرون'}",False,75,FR,,,,12,metropolitan department
4977,Aude,Aude,오드주,オード県,Aude,,Aude,Од,أود,1,43.054114000000000,1.903847600000000,Q3207,"{'en': 'Aude', 'ko': '오드주', 'ja': 'オード県', 'zh-hans': '奥德省', 'zh-hant': '奧德省', 'es': 'Aude', 'ru': 'Од', 'ar': 'أود'}",False,75,FR,,,,11,metropolitan department
4976,Aube,Aube,오브주,オーブ県,Aube,,Aube,Об,أوب,1,48.319754700000000,3.563710400000000,Q3194,"{'en': 'Aube', 'ko': '오브주', 'ja': 'オーブ県', 'zh-hans': '奥布省', 'zh-hant': '奧佈省', 'es': 'Aube', 'ru': 'Об', 'ar': 'أوب'}",False,75,FR,,,,10,metropolitan department
4975,Ariège,Ariège,아리에주주,アリエージュ県,Ariège,,Ariège,Арьеж,أرييج,1,42.943478300000000,0.940486400000000,Q3184,"{'en': 'Ariège', 'ko': '아리에주주', 'ja': 'アリエージュ県', 'zh-hans': '阿列日省', 'zh-hant': '阿列日省', 'es': 'Ariège', 'ru': 'Арьеж', 'ar': 'أرييج'}",False,75,FR,,,,09,metropolitan department
4974,Ardennes,Ardennes,아르덴주,アルデンヌ県,Ardennes,,Ardenas,Арденны,الأردين,1,49.697595100000000,4.148957600000000,Q3164,"{'en': 'Ardennes', 'ko': '아르덴주', 'ja': 'アルデンヌ県', 'zh-hans': '阿登省', 'zh-hant': '阿登省', 'es': 'Ardenas', 'ru': 'Арденны', 'ar': 'الأردين'}",False,75,FR,,,,08,metropolitan department
4973,Ardèche,Ardèche,아르데슈주,アルデシュ県,Ardèche,,Ardecha,Ардеш,الأرديش,1,44.814869500000000,3.813348300000000,Q3148,"{'en': 'Ardèche', 'ko': '아르데슈주', 'ja': 'アルデシュ県', 'zh-hans': '阿尔代什省', 'zh-hant': '阿爾代什省', 'es': 'Ardecha', 'ru': 'Ардеш', 'ar': 'الأرديش'}",False,75,FR,,,,07,metropolitan department
4972,Alpes-Maritimes,Alpes-Maritimes,알프마리팀주,アルプ＝マリティーム県,Alpes-Maritimes,,Alpes Marítimos,Приморские Альпы,الألب البحرية,1,43.920417000000000,6.616782200000000,Q3139,"{'en': 'Alpes-Maritimes', 'ko': '알프마리팀주', 'ja': 'アルプ＝マリティーム県', 'zh-hans': '滨海阿尔卑斯省', 'zh-hant': '濱海阿爾卑斯省', 'es': 'Alpes Marítimos', 'ru': 'Приморские Альпы', 'ar': 'الألب البحرية'}",False,75,FR,,,,06,metropolitan department
4971,Hautes-Alpes,Hautes-Alpes,오트잘프주,オート＝アルプ県,Hautes-Alpes,,Altos Alpes,Верхние Альпы,الألب العليا,1,44.656268200000000,5.687321100000000,Q3125,"{'en': 'Hautes-Alpes', 'ko': '오트잘프주', 'ja': 'オート＝アルプ県', 'zh-hans': '上阿尔卑斯省', 'zh-hant': '上阿爾卑斯省', 'es': 'Altos Alpes', 'ru': 'Верхние Альпы', 'ar': 'الألب العليا'}",False,75,FR,,,,05,metropolitan department
4970,Alpes-de-Haute-Provence,Alpes-de-Haute-Provence,알프드오트프로방스주,アルプ＝ド＝オート＝プロヴァンス県,Alpes-de-Haute-Provence,,Alpes de Alta Provenza,Альпы Верхнего Прованса,ألب البروفنس العليا,1,44.163775200000000,5.672478000000000,Q3131,"{'en': 'Alpes-de-Haute-Provence', 'ko': '알프드오트프로방스주', 'ja': 'アルプ＝ド＝オート＝プロヴァンス県', 'zh-hans': '上普罗旺斯阿尔卑斯省', 'zh-hant': '上普羅旺斯阿爾卑斯省', 'es': 'Alpes de Alta Provenza', 'ru': 'Альпы Верхнего Прованса', 'ar': 'ألب البروفنس العليا'}",False,75,FR,,,,04,metropolitan department
4969,Allier,Allier,알리에주,アリエ県,Allier,,Allier,Алье,أليي,1,46.367086300000000,2.580827700000000,Q3113,"{'en': 'Allier', 'ko': '알리에주', 'ja': 'アリエ県', 'zh-hans': '阿列省', 'zh-hant': '阿列省', 'es': 'Allier', 'ru': 'Алье', 'ar': 'أليي'}",False,75,FR,,,,03,metropolitan department
4968,Aisne,Aisne,엔주,エーヌ県,Aisne,,Aisne,Эна,أيسن,1,49.452892100000000,3.046511100000000,Q3093,"{'en': 'Aisne', 'ko': '엔주', 'ja': 'エーヌ県', 'zh-hans': '埃纳省', 'zh-hant': '埃納省', 'es': 'Aisne', 'ru': 'Эна', 'ar': 'أيسن'}",False,75,FR,,,,02,metropolitan department
4967,Ain,Ain,앵주,アン県,Ain,,Ain,Эн,آن,1,46.065086000000000,4.888615000000000,Q3083,"{'en': 'Ain', 'ko': '앵주', 'ja': 'アン県', 'zh-hans': '安省', 'zh-hant': '安省', 'es': 'Ain', 'ru': 'Эн', 'ar': 'آن'}",False,75,FR,,,,01,metropolitan department
4966,New Taipei,New Taipei,신베이시,新北市,New Taipei,,Nuevo Taipéi,Новый Тайбэй,تايبيه الجديدة,1,24.987527800000000,121.364594700000000,Q244898,"{'en': 'New Taipei', 'ko': '신베이시', 'ja': '新北市', 'zh-hans': '新北市', 'zh-hant': '新北市', 'es': 'Nuevo Taipéi', 'ru': 'Новый Тайбэй', 'ar': 'تايبيه الجديدة'}",False,216,TW,,,03,NWT,special municipality
4965,Keelung,Keelung,지룽시,基隆市,Keelung,,Keelung,Цзилун,كيلونغ,1,25.124186200000000,121.647583400000000,Q249996,"{'en': 'Keelung', 'ko': '지룽시', 'ja': '基隆市', 'zh-hans': '基隆市', 'zh-hant': '基隆市', 'es': 'Keelung', 'ru': 'Цзилун', 'ar': 'كيلونغ'}",False,216,TW,,,02,KEE,city
4964,Nueva Segovia,Nueva Segovia,누에바세고비아주,ヌエバ・セゴビア県,Nueva Segovia,,Departamento de Nueva Segovia,Нуэва-Сеговия,إدارة نويفا سيغوفيا,1,13.765706100000000,-86.537003900000000,Q728022,"{'en': 'Nueva Segovia Department', 'ko': '누에바세고비아주', 'ja': 'ヌエバ・セゴビア県', 'zh-hans': '新塞哥维亚省', 'zh-hant': '新塞哥維亞省', 'es': 'Departamento de Nueva Segovia', 'ru': 'Нуэва-Сеговия', 'ar': 'إدارة نويفا سيغوفيا'}",False,159,NI,,,16,NS,department
4963,Western North,Western North,Western North Region,ウェスタン・ノース州,Western North,,Región Norte Occidental,Северо-Западная область (Гана),Western North Region,1,6.300000000000000,-2.800000000000000,Q60764360,"{'en': 'Western North Region', 'ja': 'ウェスタン・ノース州', 'es': 'Región Norte Occidental', 'ru': 'Северо-Западная область (Гана)'}",False,83,GH,,,,WN,region
4962,Savannah,Savannah,Savannah Region,サバンナ州,Savannah,,Región de Sabana,Саванна,منطقة السفانا,1,9.083333000000000,-1.816667000000000,Q60764352,"{'en': 'Savannah Region', 'ja': 'サバンナ州', 'es': 'Región de Sabana', 'ru': 'Саванна', 'ar': 'منطقة السفانا'}",False,83,GH,,,,SV,region
4961,Oti,Oti,Oti Region,オティ州,Oti,,Región Oti,Оти,Oti Region,1,7.900000000000000,0.300000000000000,Q48804004,"{'en': 'Oti Region', 'ja': 'オティ州', 'es': 'Región Oti', 'ru': 'Оти'}",False,83,GH,,,,OT,region
4960,North East,North East,North East Region,ノース・イースト州,North East,,Región Norte Oriental,Северо-Восточная область,North East Region,1,10.516667000000000,-0.366667000000000,Q60764359,"{'en': 'North East Region', 'ja': 'ノース・イースト州', 'es': 'Región Norte Oriental', 'ru': 'Северо-Восточная область'}",False,83,GH,,,,NE,region
4959,Bono,Bono,Bono Region,ボノ州,Bono,,Región de Bono,Боно,إقليم بونو,1,7.650000000000000,-2.500000000000000,Q64685186,"{'en': 'Bono Region', 'ja': 'ボノ州', 'es': 'Región de Bono', 'ru': 'Боно', 'ar': 'إقليم بونو'}",False,83,GH,,,,BO,region
4958,Bono East,Bono East,Bono East Region,ボノ・イースト州,Bono East,,Región de Bono Oriental,Боно-Ист,إقليم شرق بونو,1,7.750000000000000,-1.050000000000000,Q60764358,"{'en': 'Bono East Region', 'ja': 'ボノ・イースト州', 'es': 'Región de Bono Oriental', 'ru': 'Боно-Ист', 'ar': 'إقليم شرق بونو'}",False,83,GH,,,,BE,region
4957,Basel-Stadt,Basel-Stadt,바젤슈타트주,バーゼル＝シュタット準州,Basel-Stadt,,Basilea-Ciudad,Базель-Штадт,مدينة بازل,1,47.566667000000000,7.600000000000000,Q12172,"{'en': 'Basel-Stadt', 'ko': '바젤슈타트주', 'ja': 'バーゼル＝シュタット準州', 'zh-hans': '巴塞尔城市州', 'zh-hant': '巴塞爾城市州', 'es': 'Basilea-Ciudad', 'ru': 'Базель-Штадт', 'ar': 'مدينة بازل'}",False,214,CH,,,04,BS,canton
4956,Songwe,Songwe,Songwe,Songwe,Songwe,,Songwe,Songwe,Songwe,1,-8.272612000000000,31.711317400000000,Q458382,,True,218,TZ,,,32,31,Region
4955,Mbeya,Mbeya,므베야주,ムベヤ州,Mbeya,,Región de Mbeya,Мбея,إقليم مبيا,1,-8.286611200000000,32.813253700000000,Q458382,"{'en': 'Mbeya Region', 'ko': '므베야주', 'ja': 'ムベヤ州', 'zh-hans': '姆贝亚区', 'zh-hant': '姆貝亞區', 'es': 'Región de Mbeya', 'ru': 'Мбея', 'ar': 'إقليم مبيا'}",False,218,TZ,,,09,14,Region
4954,Chaiyaphum,Chaiyaphum,차이야품주,チャイヤプーム県,Chaiyaphum,,Provincia de Chaiyaphum,Чайяпхум,محافظة تشايافوم,1,16.007497400000000,101.612917200000000,Q275377,"{'en': 'Chaiyaphum', 'ko': '차이야품주', 'ja': 'チャイヤプーム県', 'es': 'Provincia de Chaiyaphum', 'ru': 'Чайяпхум', 'ar': 'محافظة تشايافوم'}",False,219,TH,,,26,36,
4953,Lualaba,Lualaba,루알라바주,ルアラバ州,Lualaba,,Lualaba (provincia),Луалаба,Lualaba Province,1,-10.480869800000000,25.629781600000000,Q1159531,"{'en': 'Lualaba Province', 'ko': '루알라바주', 'ja': 'ルアラバ州', 'es': 'Lualaba (provincia)', 'ru': 'Луалаба'}",False,51,CD,,,21,LU,
4952,Sidi Slimane,Sidi Slimane,Sidi Slimane Province,シーディ スリマネ州,Sidi Slimane,,Provincia de Sidi Slimane,Sidi Slimane Province,إقليم سيدي سليمان,1,34.273782800000000,-5.980597200000000,Q3408411,"{'en': 'Sidi Slimane Province', 'ja': 'シーディ スリマネ州', 'zh-hans': '西迪苏莱曼省', 'zh-hant': '西迪蘇萊曼省', 'es': 'Provincia de Sidi Slimane', 'ar': 'إقليم سيدي سليمان'}",False,149,MA,,,04,SIL,province
4951,Youssoufia,Youssoufia,Youssoufia Province,ユスーフィーア州,Youssoufia,,Provincia de Youssoufia,Youssoufia Province,إقليم اليوسفية,1,32.020067900000000,-8.869264800000000,Q3408420,"{'en': 'Youssoufia Province', 'ja': 'ユスーフィーア州', 'zh-hans': '优素菲耶省', 'zh-hant': '優素菲耶省', 'es': 'Provincia de Youssoufia', 'ar': 'إقليم اليوسفية'}",False,149,MA,,,07,YUS,province
4950,Tanger-Assilah,Tanger-Assilah,Tangier-Assilah Prefecture,タンジェ・アシラー県,Tanger-Assilah,,Prefectura de Tánger-Arcila,Tangier-Assilah Prefecture,عمالة طنجة أصيلة,1,35.763253900000000,-5.904509800000000,Q2392485,"{'en': 'Tangier-Assilah Prefecture', 'ja': 'タンジェ・アシラー県', 'zh-hans': '丹吉尔-艾西拉专区', 'zh-hant': '丹吉爾-艾西拉專區', 'es': 'Prefectura de Tánger-Arcila', 'ar': 'عمالة طنجة أصيلة'}",False,149,MA,,,01,TNG,prefecture
4949,Tinghir,Tinghir,Tinghir Province,ティンジル州,Tinghir,,Provincia de Tinerhir,Tinghir Province,إقليم تنغير,1,31.485079400000000,-6.201929800000000,Q3408414,"{'en': 'Tinghir Province', 'ja': 'ティンジル州', 'es': 'Provincia de Tinerhir', 'ar': 'إقليم تنغير'}",False,149,MA,,,08,TIN,province
4948,Tarfaya (EH-partial),Tarfaya (EH-partial),Tarfaya Province,タルファヤ州,Tarfaya (EH-partial),,Tarfaya,Tarfaya Province,إقليم طرفاية,1,27.937770100000000,-12.929406300000000,Q15125620,"{'en': 'Tarfaya Province', 'ja': 'タルファヤ州', 'es': 'Tarfaya', 'ar': 'إقليم طرفاية'}",False,149,MA,,,11,TAF,province
4947,Skhirate-Témara,Skhirate-Témara,Skhirat-Témara Prefecture,Skhirat-Témara県,Skhirate-Témara,,Prefectura de Sjirat-Témara,Skhirat-Témara Prefecture,عمالة الصخيرات تمارة,1,33.762242500000000,-7.041905200000000,Q737483,"{'en': 'Skhirat-Témara Prefecture', 'ja': 'Skhirat-Témara県', 'zh-hans': '斯希拉特-特马拉专区', 'zh-hant': '斯希拉特-特馬拉專區', 'es': 'Prefectura de Sjirat-Témara', 'ar': 'عمالة الصخيرات تمارة'}",False,149,MA,,,04,SKH,prefecture
4946,Sidi Ifni,Sidi Ifni,Sidi Ifni Province,シディ・イフニー州,Sidi Ifni,,Provincia de Sidi Ifni,Сиди-Ифни,إقليم سيدي إفني,1,29.366579700000000,-10.210848500000000,Q2672941,"{'en': 'Sidi Ifni Province', 'ja': 'シディ・イフニー州', 'es': 'Provincia de Sidi Ifni', 'ru': 'Сиди-Ифни', 'ar': 'إقليم سيدي إفني'}",False,149,MA,,,10,SIF,province
4945,Sidi Bennour,Sidi Bennour,Sidi Bennour Province,シディベヌール州,Sidi Bennour,,provincia Sidi Bennour,Провинция Сиди Беннур,إقليم سيدي بنور,1,32.649260200000000,-8.447145300000000,Q3408408,"{'en': 'Sidi Bennour Province', 'ja': 'シディベヌール州', 'es': 'provincia Sidi Bennour', 'ru': 'Провинция Сиди Беннур', 'ar': 'إقليم سيدي بنور'}",False,149,MA,,,06,SIB,province
4944,Salé,Salé,살레,サレ,Salé,,Salé,Сале,سلا,1,34.037757000000000,-6.842707300000000,Q466046,"{'en': 'Salé', 'ko': '살레', 'ja': 'サレ', 'zh-hans': '塞拉', 'zh-hant': '塞拉', 'es': 'Salé', 'ru': 'Сале', 'ar': 'سلا'}",False,149,MA,,,04,SAL,prefecture
4943,Rehamna,Rehamna,Rhamna Province,レハムナ州,Rehamna,,Provincia de Rehamna,Rhamna Province,إقليم الرحامنة,1,32.203290500000000,-8.568967100000000,Q3408399,"{'en': 'Rhamna Province', 'ja': 'レハムナ州', 'zh-hans': '赖哈姆纳省', 'zh-hant': '賴哈姆納省', 'es': 'Provincia de Rehamna', 'ar': 'إقليم الرحامنة'}",False,149,MA,,,07,REH,province
4942,Rabat,Rabat,라바트,ラバト,Rabat,,Rabat,Рабат,الرباط,1,33.969199000000000,-6.927302900000000,Q3551,"{'en': 'Rabat', 'ko': '라바트', 'ja': 'ラバト', 'zh-hant': '拉巴特', 'es': 'Rabat', 'ru': 'Рабат', 'ar': 'الرباط'}",False,149,MA,,,04,RAB,prefecture
4941,Ouezzane,Ouezzane,Ouezzane Province,ウェザーン州,Ouezzane,,Provincia de Uezán,Ouezzane Province,إقليم وزان,1,34.806345000000000,-5.591450500000000,Q3408330,"{'en': 'Ouezzane Province', 'ja': 'ウェザーン州', 'zh-hant': '沃贊省', 'es': 'Provincia de Uezán', 'ar': 'إقليم وزان'}",False,149,MA,,,01,OUZ,province
4940,Oujda-Angad,Oujda-Angad,Oujda-Angad Prefecture,ウジダ・アンガ県,Oujda-Angad,,Prefectura de Oujda-Angad,Уджда-Ангад,عمالة وجدة أنكاد,1,34.683750400000000,-2.299323900000000,Q1734717,"{'en': 'Oujda-Angad Prefecture', 'ja': 'ウジダ・アンガ県', 'zh-hans': '乌季达-安加得专区', 'zh-hant': '烏季達-安加得專區', 'es': 'Prefectura de Oujda-Angad', 'ru': 'Уджда-Ангад', 'ar': 'عمالة وجدة أنكاد'}",False,149,MA,,,02,OUJ,prefecture
4939,Mohammadia,Mohammadia,모하메디아,モハメディア,Mohammadia,,Mohammédia,Мохаммедия,المحمدية,1,33.687374900000000,-7.423914200000000,Q647417,"{'en': 'Mohammedia', 'ko': '모하메디아', 'ja': 'モハメディア', 'zh-hans': '穆罕默迪耶', 'zh-hant': '穆罕默迪耶', 'es': 'Mohammédia', 'ru': 'Мохаммедия', 'ar': 'المحمدية'}",False,149,MA,,,06,MOH,prefecture
4938,Midelt,Midelt,Midelt Province,ミデルト州,Midelt,,Provincia de Midelt,Midelt Province,إقليم ميدلت,1,32.685507900000000,-4.750170900000000,Q3408385,"{'en': 'Midelt Province', 'ja': 'ミデルト州', 'es': 'Provincia de Midelt', 'ar': 'إقليم ميدلت'}",False,149,MA,,,08,MID,province
4937,Meknès,Meknès,Meknès Prefecture,メクネス県,Meknès,,Prefectura de Mequinez,Мекнес,عمالة مكناس,1,33.881000000000000,-5.573039700000000,Q3408890,"{'en': 'Meknès Prefecture', 'ja': 'メクネス県', 'es': 'Prefectura de Mequinez', 'ru': 'Мекнес', 'ar': 'عمالة مكناس'}",False,149,MA,,,03,MEK,prefecture
4936,M’diq-Fnideq,M’diq-Fnideq,M'diq-Fnideq Prefecture,メディック・フニデク県,M’diq-Fnideq,,M'Diq-Fnideq,M'diq-Fnideq Prefecture,عمالة المضيق الفنيدق,1,35.773301900000000,-5.514330000000000,Q3408887,"{'en': ""M'diq-Fnideq Prefecture"", 'ja': 'メディック・フニデク県', 'zh-hans': '迈迪格-费尼迪克专区', 'zh-hant': '邁迪格-費尼迪克專區', 'es': ""M'Diq-Fnideq"", 'ar': 'عمالة المضيق الفنيدق'}",False,149,MA,,,01,MDF,prefecture
4935,Marrakech,Marrakech,마라케시,マラケシュ,Marrakech,,Marrakech,Марракеш,مراكش,1,31.634602300000000,-8.077893200000000,Q101625,"{'en': 'Marrakesh', 'ko': '마라케시', 'ja': 'マラケシュ', 'zh-hans': '马拉喀什', 'zh-hant': '馬拉喀什', 'es': 'Marrakech', 'ru': 'Марракеш', 'ar': 'مراكش'}",False,149,MA,,,07,MAR,prefecture
4934,Guercif,Guercif,Guercif Province,ゲルシフ州,Guercif,,Provincia de Guercif,Guercif Province,إقليم جرسيف,1,34.234503600000000,-3.381300500000000,Q3408363,"{'en': 'Guercif Province', 'ja': 'ゲルシフ州', 'zh-hant': '蓋爾西夫省', 'es': 'Provincia de Guercif', 'ar': 'إقليم جرسيف'}",False,149,MA,,,02,GUF,province
4933,Fquih Ben Salah,Fquih Ben Salah,Fquih Ben Salah Province,フキレ・ベンヌ・サラ州,Fquih Ben Salah,,Provincia de Fquih Ben Salah,Fquih Ben Salah Province,‫إقليم الفقيه بن صالح‬,1,32.500168000000000,-6.710071700000000,Q3408359,"{'en': 'Fquih Ben Salah Province', 'ja': 'フキレ・ベンヌ・サラ州', 'es': 'Provincia de Fquih Ben Salah', 'ar': '\u202bإقليم الفقيه بن صالح\u202c'}",False,149,MA,,,05,FQH,province
4932,Fès,Fès,페스,フェズ,Fès,,Fez,Фес,فاس,1,34.023957900000000,-5.036759900000000,Q80985,"{'en': 'Fez', 'ko': '페스', 'ja': 'フェズ', 'zh-hans': '非斯', 'zh-hant': '費茲', 'es': 'Fez', 'ru': 'Фес', 'ar': 'فاس'}",False,149,MA,,,03,FES,prefecture
4931,Driouch,Driouch,Driouch Province,ドリオウチュ州,Driouch,,Provincia de Driouch,Driouch Province,إقليم الدريوش,1,34.976032000000000,-3.396449300000000,Q1440552,"{'en': 'Driouch Province', 'ja': 'ドリオウチュ州', 'zh-hans': '德利欧奇省', 'zh-hant': '德利歐奇省', 'es': 'Provincia de Driouch', 'ar': 'إقليم الدريوش'}",False,149,MA,,,02,DRI,province
4930,Casablanca,Casablanca,카사블랑카,カサブランカ,Casablanca,,Casablanca,Касабланка,الدار البيضاء,1,33.572267800000000,-7.657032600000000,Q7903,"{'en': 'Casablanca', 'ko': '카사블랑카', 'ja': 'カサブランカ', 'zh-hans': '卡萨布兰卡', 'zh-hant': '卡薩布蘭卡', 'es': 'Casablanca', 'ru': 'Касабланка', 'ar': 'الدار البيضاء'}",False,149,MA,,,06,CAS,prefecture
4929,Berrechid,Berrechid,Berrechid Province,ベレチド州,Berrechid,,Provincia de Berrechid,Berrechid Province,إقليم برشيد,1,33.260252300000000,-7.598483700000000,Q2395317,"{'en': 'Berrechid Province', 'ja': 'ベレチド州', 'es': 'Provincia de Berrechid', 'ar': 'إقليم برشيد'}",False,149,MA,,,06,BRR,province
4928,Agadir-Ida-Ou-Tanane,Agadir-Ida-Ou-Tanane,Agadir-Ida-Ou-Tanane Prefecture,アガディール＝イダ＝オ＝タナネ県,Agadir-Ida-Ou-Tanane,,Prefectura de Agadir Ida-Outanane,Agadir-Ida-Ou-Tanane Prefecture,عمالة أكادير إداوتنان,1,30.646209100000000,-9.833906100000000,Q389976,"{'en': 'Agadir-Ida-Ou-Tanane Prefecture', 'ja': 'アガディール＝イダ＝オ＝タナネ県', 'es': 'Prefectura de Agadir Ida-Outanane', 'ar': 'عمالة أكادير إداوتنان'}",False,149,MA,,,09,AGD,prefecture
4927,Rabat-Salé-Kénitra,Rabat-Salé-Kénitra,라바트살레케니트라 지방,ラバト＝サレ＝ケニトラ地方,Rabat-Salé-Kénitra,,Rabat-Salé-Kénitra,Рабат-Сале-Кенитра,جهة الرباط سلا القنيطرة,1,34.076864000000000,-7.345447600000000,Q19951239,"{'en': 'Rabat-Salé-Kénitra', 'ko': '라바트살레케니트라 지방', 'ja': 'ラバト＝サレ＝ケニトラ地方', 'es': 'Rabat-Salé-Kénitra', 'ru': 'Рабат-Сале-Кенитра', 'ar': 'جهة الرباط سلا القنيطرة'}",False,149,MA,,,04,04,region
4926,Rivers,Rivers,리버스주,リバーズ州,Rivers,,Rivers,Риверс,ولاية ريفرز,1,5.021342000000000,6.437602200000000,Q503923,"{'en': 'Rivers State', 'ko': '리버스주', 'ja': 'リバーズ州', 'zh-hans': '河流州', 'zh-hant': '河流州', 'es': 'Rivers', 'ru': 'Риверс', 'ar': 'ولاية ريفرز'}",False,161,NG,,,50,RI,state
4925,Cần Thơ,Cần Thơ,껀터,カントー,Cần Thơ,,Cần Thơ,Кантхо,كن تاه,1,10.034185100000000,105.722550700000000,Q216075,"{'en': 'Cần Thơ', 'ko': '껀터', 'ja': 'カントー', 'zh-hans': '芹苴市', 'zh-hant': '芹苴市', 'es': 'Cần Thơ', 'ru': 'Кантхо', 'ar': 'كن تاه'}",False,240,VN,,,87,CT,
4924,Kōchi Prefecture,Kōchi Prefecture,고치현,高知県,Kōchi Prefecture,,Prefectura de Kōchi,Коти,كوتشي,1,33.287916100000000,132.275926200000000,Q134093,"{'en': 'Kōchi Prefecture', 'ko': '고치현', 'ja': '高知県', 'zh-hans': '高知县', 'zh-hant': '高知縣', 'es': 'Prefectura de Kōchi', 'ru': 'Коти', 'ar': 'كوتشي'}",False,109,JP,,,20,39,
4923,Kutná Hora,Kutná Hora,쿠트나호라,クトナー・ホラ,Kutná Hora,,Kutná Hora,Кутна-Гора,كوتنا هورا,1,49.949208900000000,15.247044000000000,Q155975,"{'en': 'Kutná Hora', 'ko': '쿠트나호라', 'ja': 'クトナー・ホラ', 'zh-hans': '库特纳霍拉', 'zh-hant': '庫特納霍拉', 'es': 'Kutná Hora', 'ru': 'Кутна-Гора', 'ar': 'كوتنا هورا'}",False,58,CZ,,,82,205,
4922,Loreto,Loreto,로레토주,ロレート県,Loreto,,Loreto,Лорето,إقليم لوريتو,1,-4.374164300000000,-76.130426400000000,Q200938,"{'en': 'Loreto', 'ko': '로레토주', 'ja': 'ロレート県', 'zh-hans': '洛雷托大区', 'zh-hant': '洛雷託大區', 'es': 'Loreto', 'ru': 'Лорето', 'ar': 'إقليم لوريتو'}",False,173,PE,,,16,LOR,
4921,Bogotá D.C.,Bogotá D.C.,Bogotá D.C.,Bogotá D.C.,Bogotá D.C.,,Bogotá D.C.,Bogotá D.C.,Bogotá D.C.,1,4.282041500000000,-74.502704200000000,,,True,48,CO,,,00,DC,capital district
4920,Hamadan,Hamadan,하마단주,ハマダーン州,Hamadan,,Hamadán,Хамадан,همدان,1,34.919360700000000,47.483292500000000,Q187373,"{'en': 'Hamadan Province', 'ko': '하마단주', 'ja': 'ハマダーン州', 'zh-hans': '哈马丹省', 'zh-hant': '哈馬丹省', 'es': 'Hamadán', 'ru': 'Хамадан', 'ar': 'همدان'}",False,103,IR,,,24,13,province
4919,Moneghetti,Moneghetti,모네게티,Condamine,Moneghetti,,Monegeti,Монегетти,Condamine,1,43.736492700000000,7.415338300000000,Q55108,"{'en': 'Condamine', 'ko': '모네게티', 'es': 'Monegeti', 'ru': 'Монегетти'}",False,145,MC,,,,MG,
4918,La Condamine,La Condamine,라콩다민,ラ・コンダミーヌ地区,La Condamine,,La Condamine,Ла-Кондамин,La Condamine,1,43.735066500000000,7.419906000000000,Q55095,"{'en': 'La Condamine', 'ko': '라콩다민', 'ja': 'ラ・コンダミーヌ地区', 'es': 'La Condamine', 'ru': 'Ла-Кондамин'}",False,145,MC,,,,CO,
4917,La Colle,La Colle,라콜,ラ・コル,La Colle,,La Colle,Ла-Колле,La Colle,1,43.732746500000000,7.413727600000000,Q55102,"{'en': 'La Colle', 'ko': '라콜', 'ja': 'ラ・コル', 'zh-hant': '拉科勒', 'es': 'La Colle', 'ru': 'Ла-Колле'}",False,145,MC,,,,CL,
4916,Volgograd Oblast,Volgograd Oblast,볼고그라드주,ヴォルゴグラード州,Volgograd Oblast,,Volgogrado,Волгоградская область,فولغوغراد أوبلاست,1,49.258739300000000,39.815446300000000,Q3819,"{'en': 'Volgograd Oblast', 'ko': '볼고그라드주', 'ja': 'ヴォルゴグラード州', 'zh-hans': '伏尔加格勒州', 'zh-hant': '伏爾加格勒州', 'es': 'Volgogrado', 'ru': 'Волгоградская область', 'ar': 'فولغوغراد أوبلاست'}",False,182,RU,,,84,VGG,
4915,Mureș County,Mureș County,마라무레슈주,マラムレシュ県,Mureș County,,Maramureș,Марамуреш,مقاطعة مارامورس,1,46.556990400000000,24.672321500000000,Q188813,"{'en': 'Maramureș County', 'ko': '마라무레슈주', 'ja': 'マラムレシュ県', 'zh-hans': '马拉穆列什县', 'zh-hant': '馬拉穆列什縣', 'es': 'Maramureș', 'ru': 'Марамуреш', 'ar': 'مقاطعة مارامورس'}",False,181,RO,,,27,MS,
4914,In Guezzam,In Guezzam,In Guezzam Province,イン・ゲザム県,In Guezzam,,Provincia de In Guezzam,Ин-Геззам,ولاية عين قزام,1,20.386432300000000,4.778939400000000,Q77102475,"{'en': 'In Guezzam Province', 'ja': 'イン・ゲザム県', 'zh-hans': '因盖扎姆省', 'zh-hant': '因蓋扎姆省', 'es': 'Provincia de In Guezzam', 'ru': 'Ин-Геззам', 'ar': 'ولاية عين قزام'}",False,4,DZ,,,,58,
4913,In Salah,In Salah,In Salah Province,イン・サラー県,In Salah,,Provincia de In Salah,Ин Сала,ولاية عين صالح,1,27.214922900000000,1.848439600000000,Q76593022,"{'en': 'In Salah Province', 'ja': 'イン・サラー県', 'es': 'Provincia de In Salah', 'ru': 'Ин Сала', 'ar': 'ولاية عين صالح'}",False,4,DZ,,,,57,
4912,Djanet,Djanet,Djanet Province,ジャーネット県,Djanet,,Provincia de Djanet,Djanet Province,ولاية جانت,1,23.831087200000000,8.700467200000000,Q77101547,"{'en': 'Djanet Province', 'ja': 'ジャーネット県', 'es': 'Provincia de Djanet', 'ar': 'ولاية جانت'}",False,4,DZ,,,,56,
4911,Touggourt,Touggourt,Touggourt Province,トゥーグラ県,Touggourt,,Provincia de Tuggurt,Туггурт,ولاية تقرت,1,33.124847600000000,5.783271500000000,Q77103880,"{'en': 'Touggourt Province', 'ja': 'トゥーグラ県', 'zh-hans': '图古尔特省', 'zh-hant': '图古爾特省', 'es': 'Provincia de Tuggurt', 'ru': 'Туггурт', 'ar': 'ولاية تقرت'}",False,4,DZ,,,,55,
4910,Timimoun,Timimoun,Timimoun Province,ティミムン県,Timimoun,,Provincia de Timimoun,Тимимун,ولاية تيميمون,1,29.678906000000000,0.500460800000000,Q21606903,"{'en': 'Timimoun Province', 'ja': 'ティミムン県', 'zh-hans': '提米蒙省', 'zh-hant': '提米蒙省', 'es': 'Provincia de Timimoun', 'ru': 'Тимимун', 'ar': 'ولاية تيميمون'}",False,4,DZ,,,,54,
4909,Béni Abbès,Béni Abbès,Beni Abbes Province,ベニ・アッベス県,Béni Abbès,,Provincia de Béni Abbès,Beni Abbes Province,ولاية بني عباس,1,30.083104200000000,-2.834505200000000,Q21606902,"{'en': 'Beni Abbes Province', 'ja': 'ベニ・アッベス県', 'zh-hans': '贝尼阿巴斯省', 'zh-hant': '貝尼阿巴斯省', 'es': 'Provincia de Béni Abbès', 'ar': 'ولاية بني عباس'}",False,4,DZ,,,,53,
4908,Bordj Baji Mokhtar,Bordj Baji Mokhtar,Bordj Baji Mokhtar Province,ボルジュ・バジ・モウタール県,Bordj Baji Mokhtar,,Provincia de Bordj Badji Mokhtar,Bordj Baji Mokhtar Province,ولاية برج باجي مختار,1,22.966335000000000,-3.947273200000000,Q76592938,"{'en': 'Bordj Baji Mokhtar Province', 'ja': 'ボルジュ・バジ・モウタール県', 'zh-hans': '巴吉穆赫塔尔堡省', 'es': 'Provincia de Bordj Badji Mokhtar', 'ar': 'ولاية برج باجي مختار'}",False,4,DZ,,,,52,
4907,Ouled Djellal,Ouled Djellal,Ouled Djellal Province,ウレド・ジェラル県,Ouled Djellal,,Provincia de Ouled Djellal,Улед-Джеллал,ولاية أولاد جلال,1,34.417822100000000,4.968584300000000,Q77105251,"{'en': 'Ouled Djellal Province', 'ja': 'ウレド・ジェラル県', 'es': 'Provincia de Ouled Djellal', 'ru': 'Улед-Джеллал', 'ar': 'ولاية أولاد جلال'}",False,4,DZ,,,,51,
4906,El Menia,El Menia,El Meniaa Province,エル・メニア県,El Menia,,Provincia de El Menia,El Meniaa Province,ولاية المنيعة,1,31.364225000000000,2.578449500000000,Q76520264,"{'en': 'El Meniaa Province', 'ja': 'エル・メニア県', 'es': 'Provincia de El Menia', 'ar': 'ولاية المنيعة'}",False,4,DZ,,,,50,
4905,El M'ghair,El M'ghair,El M'Ghair Province,エル・ムエラ県,El M'ghair,,Provincia de El M'Ghair,Эль-М'гаир,ولاية المغير الجزائرية,1,33.954056100000000,5.134641800000000,Q77103173,"{'en': ""El M'Ghair Province"", 'ja': 'エル・ムエラ県', 'es': ""Provincia de El M'Ghair"", 'ru': ""Эль-М'гаир"", 'ar': 'ولاية المغير الجزائرية'}",False,4,DZ,,,,49,
4902,Sidi Bel Abbès,Sidi Bel Abbès,시디벨아베스주,シディ・ベル・アッベス県,Sidi Bel Abbès,,Provincia de Sidi Bel Abbes,Сиди-Бель-Аббес,ولاية سيدي بلعباس,1,34.680602400000000,-1.099949500000000,Q235714,"{'en': 'Sidi Bel Abbès Province', 'ko': '시디벨아베스주', 'ja': 'シディ・ベル・アッベス県', 'zh-hans': '西迪贝勒阿巴斯省', 'zh-hant': '西迪貝勒阿巴斯省', 'es': 'Provincia de Sidi Bel Abbes', 'ru': 'Сиди-Бель-Аббес', 'ar': 'ولاية سيدي بلعباس'}",False,4,DZ,,,30,22,
4901,Sha Tin,Sha Tin,사톈구,沙田区,Sha Tin,,Sha Tin,Сатхинь,مقاطعة شا تين,1,22.387150000000000,114.195340000000000,Q15019,"{'en': 'Sha Tin District', 'ko': '사톈구', 'ja': '沙田区', 'zh-hans': '沙田区', 'zh-hant': '沙田區', 'es': 'Sha Tin', 'ru': 'Сатхинь', 'ar': 'مقاطعة شا تين'}",False,98,HK,,,,NST,district
4900,North,North,베이구,北区,North,,Distrito Norte,Северный округ Гонконга,المقاطعة الشمالية، هونغ كونغ,1,22.494710000000000,114.138120000000000,Q868032,"{'en': 'North District', 'ko': '베이구', 'ja': '北区', 'zh-hans': '北区', 'zh-hant': '北區', 'es': 'Distrito Norte', 'ru': 'Северный округ Гонконга', 'ar': 'المقاطعة الشمالية، هونغ كونغ'}",False,98,HK,,,,NNO,district
4899,Tuen Mun,Tuen Mun,튄문구,屯門区,Tuen Mun,,Tuen Mun,Тхюньмунь,مقاطعة توين مون,1,22.391630000000000,113.977088500000000,Q986383,"{'en': 'Tuen Mun District', 'ko': '튄문구', 'ja': '屯門区', 'zh-hans': '屯门区', 'zh-hant': '屯門區', 'es': 'Tuen Mun', 'ru': 'Тхюньмунь', 'ar': 'مقاطعة توين مون'}",False,98,HK,,,,NTM,district
4898,Kwai Tsing,Kwai Tsing,쿠이칭구,葵青区,Kwai Tsing,,Kwai Tsing,Кхуайчхин,مقاطعة كواي تسينغ,1,22.354880000000000,114.084010000000000,Q877132,"{'en': 'Kwai Tsing District', 'ko': '쿠이칭구', 'ja': '葵青区', 'zh-hans': '葵青区', 'zh-hant': '葵青區', 'es': 'Kwai Tsing', 'ru': 'Кхуайчхин', 'ar': 'مقاطعة كواي تسينغ'}",False,98,HK,,,,NKT,district
4897,Kwun Tong,Kwun Tong,군통,観塘,Kwun Tong,,Kwun Tong,Kwun Tong,Kwun Tong,1,22.313260000000000,114.225810000000000,Q1045119,"{'en': 'Kwun Tong', 'ko': '군통', 'ja': '観塘', 'zh-hans': '观塘', 'zh-hant': '觀塘'}",False,98,HK,,,,KKT,district
4896,Wong Tai Sin,Wong Tai Sin,웡다이신구,黄大仙区,Wong Tai Sin,,Wong Tai Sin,Вонтайсинь,مقاطعة وونغ تاي سين,1,22.333530000000000,114.196860000000000,Q878503,"{'en': 'Wong Tai Sin District', 'ko': '웡다이신구', 'ja': '黄大仙区', 'zh-hans': '黄大仙区', 'zh-hant': '黃大仙區', 'es': 'Wong Tai Sin', 'ru': 'Вонтайсинь', 'ar': 'مقاطعة وونغ تاي سين'}",False,98,HK,,,,KWT,district
4895,Kowloon City,Kowloon City,가우룽싱구,九龍城区,Kowloon City,,Kowloon City District,Коулун-Сити,مقاطعة مدينة كولون,1,22.328200000000000,114.191550000000000,Q986415,"{'en': 'Kowloon City District', 'ko': '가우룽싱구', 'ja': '九龍城区', 'zh-hans': '九龙城区', 'zh-hant': '九龍城區', 'ru': 'Коулун-Сити', 'ar': 'مقاطعة مدينة كولون'}",False,98,HK,,,,KKC,district
4894,Sham Shui Po,Sham Shui Po,삼서이보구,深水埗区,Sham Shui Po,,Sham Shui Po,Самсёйпоу,مقاطعة شام شوي بو,1,22.330740000000000,114.162200000000000,Q655626,"{'en': 'Sham Shui Po District', 'ko': '삼서이보구', 'ja': '深水埗区', 'zh-hans': '深水埗区', 'zh-hant': '深水埗區', 'es': 'Sham Shui Po', 'ru': 'Самсёйпоу', 'ar': 'مقاطعة شام شوي بو'}",False,98,HK,,,,KSS,district
4893,Yau Tsim Mong,Yau Tsim Mong,유젠왕 구,油尖旺区,Yau Tsim Mong,,Yau Tsim Mong,Яучиммон,مقاطعة ياو تسيم مونغ,1,22.321380000000000,114.172600000000000,Q157669,"{'en': 'Yau Tsim Mong District', 'ko': '유젠왕 구', 'ja': '油尖旺区', 'zh-hans': '油尖旺区', 'zh-hant': '油尖旺區', 'es': 'Yau Tsim Mong', 'ru': 'Яучиммон', 'ar': 'مقاطعة ياو تسيم مونغ'}",False,98,HK,,,,KYT,district
4892,Southern,Southern,난 구,南区,Southern,,Distrito Sur,Южный округ Гонконга,المقاطعة الجنوبية، هونغ كونغ,1,22.247250000000000,114.158840000000000,Q986431,"{'en': 'Southern District', 'ko': '난 구', 'ja': '南区', 'zh-hans': '南区', 'zh-hant': '南區', 'es': 'Distrito Sur', 'ru': 'Южный округ Гонконга', 'ar': 'المقاطعة الجنوبية، هونغ كونغ'}",False,98,HK,,,,HSO,district
4891,Eastern,Eastern,둥구,東区,Eastern,,Distrito Este,Восточный округ Гонконга,المقاطعة الشرقية، هونغ كونغ,1,22.284110000000000,114.224140000000000,Q727054,"{'en': 'Eastern District', 'ko': '둥구', 'ja': '東区', 'zh-hans': '东区', 'zh-hant': '東區', 'es': 'Distrito Este', 'ru': 'Восточный округ Гонконга', 'ar': 'المقاطعة الشرقية، هونغ كونغ'}",False,98,HK,,,,HEA,district
4890,Wan Chai,Wan Chai,완자이구,湾仔区,Wan Chai,,Wan Chai,Ваньчай,مقاطعة وان تشاي,1,22.279680000000000,114.171680000000000,Q986434,"{'en': 'Wan Chai District', 'ko': '완자이구', 'ja': '湾仔区', 'zh-hans': '湾仔区', 'zh-hant': '灣仔區', 'es': 'Wan Chai', 'ru': 'Ваньчай', 'ar': 'مقاطعة وان تشاي'}",False,98,HK,,,,HWC,district
4889,Central and Western,Central and Western,중시구,中西区,Central and Western,,Central y Oeste,Центральный и Западный округ Гонконга,المقاطعة الوسطى والغربية,1,22.286660000000000,114.154970000000000,Q312485,"{'en': 'Central and Western District', 'ko': '중시구', 'ja': '中西区', 'zh-hans': '中西区', 'zh-hant': '中西區', 'es': 'Central y Oeste', 'ru': 'Центральный и Западный округ Гонконга', 'ar': 'المقاطعة الوسطى والغربية'}",False,98,HK,,,,HCW,district
4888,Islands,Islands,리다오구,離島区,Islands,,Distrito de las Islas,Айлендс,مقاطعة الجزر,1,22.261140000000000,113.946080000000000,Q752523,"{'en': 'Islands District', 'ko': '리다오구', 'ja': '離島区', 'zh-hans': '离岛区', 'zh-hant': '離島區', 'es': 'Distrito de las Islas', 'ru': 'Айлендс', 'ar': 'مقاطعة الجزر'}",False,98,HK,,,,NIS,district
4887,Sai Kung,Sai Kung,시궁구,西貢区,Sai Kung,,Sai Kung,Сайкун,مقاطعة ساي كونغ,1,22.381430000000000,114.270520000000000,Q155697,"{'en': 'Sai Kung District', 'ko': '시궁구', 'ja': '西貢区', 'zh-hans': '西贡区', 'zh-hant': '西貢區', 'es': 'Sai Kung', 'ru': 'Сайкун', 'ar': 'مقاطعة ساي كونغ'}",False,98,HK,,,,NSK,district
4885,Tai Po,Tai Po,다푸구,大埔区,Tai Po,,Tai Po,Тайпоу,مقاطعة تاي بو,1,22.450850000000000,114.164220000000000,Q877813,"{'en': 'Tai Po District', 'ko': '다푸구', 'ja': '大埔区', 'zh-hans': '大埔区', 'zh-hant': '大埔區', 'es': 'Tai Po', 'ru': 'Тайпоу', 'ar': 'مقاطعة تاي بو'}",False,98,HK,,,,NTP,district
4884,Tsuen Wan,Tsuen Wan,취안완 구,荃湾区,Tsuen Wan,,Tsuen Wan,Чхюньвань,مقاطعة تسوين وان,1,22.362810000000000,114.129070000000000,Q878514,"{'en': 'Tsuen Wan District', 'ko': '취안완 구', 'ja': '荃湾区', 'zh-hans': '荃湾区', 'zh-hant': '荃灣區', 'es': 'Tsuen Wan', 'ru': 'Чхюньвань', 'ar': 'مقاطعة تسوين وان'}",False,98,HK,,,,NTW,district
4883,Yuen Long,Yuen Long,위안랑구,元朗区,Yuen Long,,Yuen Long,Юньлон,مقاطعة يوين لونغ,1,22.445590000000000,114.022180000000000,Q871442,"{'en': 'Yuen Long District', 'ko': '위안랑구', 'ja': '元朗区', 'zh-hans': '元朗区', 'zh-hant': '元朗區', 'es': 'Yuen Long', 'ru': 'Юньлон', 'ar': 'مقاطعة يوين لونغ'}",False,98,HK,,,,NYL,district
4882,Shumen,Shumen,슈멘주,シュメン州,Shumen,,Shumen,Шуменская область,مقاطعة شومن,1,43.271239800000000,26.936128600000000,Q184981,"{'en': 'Shumen Province', 'ko': '슈멘주', 'ja': 'シュメン州', 'zh-hans': '舒门州', 'zh-hant': '舒門州', 'es': 'Shumen', 'ru': 'Шуменская область', 'ar': 'مقاطعة شومن'}",False,34,BG,,,54,27,
4881,New Providence,New Providence,뉴프로비던스섬,ニュープロビデンス島,New Providence,,Nueva Providencia,Нью-Провиденс,بروفيدانس الجديدة,1,40.698434800000000,-74.401540500000000,Q858513,"{'en': 'New Providence', 'ko': '뉴프로비던스섬', 'ja': 'ニュープロビデンス島', 'zh-hans': '新普罗维登斯岛', 'zh-hant': '新普羅維登斯島', 'es': 'Nueva Providencia', 'ru': 'Нью-Провиденс', 'ar': 'بروفيدانس الجديدة'}",False,17,BS,,,23,NP,
4880,Ciudad Autónoma de Buenos Aires,Ciudad Autónoma de Buenos Aires,부에노스아이레스주,ブエノスアイレス州,Ciudad Autónoma de Buenos Aires,,Provincia de Buenos Aires,Буэнос-Айрес,بوينس آيرس,1,-34.603684400000000,-58.381559100000000,Q44754,"{'en': 'Buenos Aires Province', 'ko': '부에노스아이레스주', 'ja': 'ブエノスアイレス州', 'zh-hant': '布宜諾斯艾利斯省', 'es': 'Provincia de Buenos Aires', 'ru': 'Буэнос-Айрес', 'ar': 'بوينس آيرس'}",False,11,AR,,,01,C,city
